GPSSecondsToday,Session Time,GPS Fix Quality,Number of Satellites,GPS Date & Time,Latitude (deg),Longitude (deg),GPS Altitude (feet),Ground Speed (knots),Ground Track (deg),Mag Var (deg),Cross Track Error (NM),Destination Waypoint ID,Range to Destination (NM),Bearing to Destination (deg),System Time,Pitch (deg),Roll (deg),Magnetic Heading (deg),Indicated Airspeed (knots),Pressure Altitude (ft),Turn Rate (deg/s),Lateral Accel (g),Vertical Accel(g),Angle of Attack (%),Vertical Speed (ft/min),OAT (deg C),True Airspeed (knots),Barometer Setting (inHg),Density Altitude (ft),Wind Direction (deg),Wind Speed (knots),Heading Bug (deg),Altitude Bug (ft),Airspeed Bug (knots),Vertical Speed Bug (ft/min),Course (deg),CDI Source Type,CDI Source Port,CDI Scale (NM),CDI Deflection (%),Glideslope (%),AP Engaged,AP Roll Mode,AP Roll Force,AP Roll Position (steps),AP Roll Slip (bool),AP Pitch Force,AP Pitch Position (steps),AP Pitch Slip (bool),AP Yaw Force,AP Yaw Position,AP Yaw Slip (bool),Transponder Status,Transponder Reply (bool),Transponder Identing (bool),Transponder Code (octal),Oil Pressure (PSI),Oil Temp (deg C),RPM L,RPM R,Manifold Pressure (inHg),Fuel Flow 1 (gal/hr),Fuel Flow 2 (gal/hr),Fuel Pressure (PSI),Fuel Level L (gal),Fuel Level R (gal),Fuel Remaining (gal),Volts 1,Volts 2,Amps,Hobbs Time,Tach Time,Thermocouple 1 (deg C),Thermocouple 2 (deg C),Thermocouple 3 (deg C),Thermocouple 4 (deg C),Thermocouple 5 (deg C),Thermocouple 6 (deg C),Thermocouple 7 (deg C),PANELT (deg C),Thermocouple 9 (deg C),EGT R (deg C),Thermocouple 11 (deg C),EGT L (deg C),Thermocouple 13 (deg C),Thermocouple 14 (deg C),CTL TEMPERATURE (deg C),OIL T TEMPERATURE (deg C),CARB TEMPERATURE (deg C),FUEL PRESSURE (PSI),ELEV POSITION (%),GEAR CONTACT (V),GP Input 7,GP Input 8,FUEL L LEVEL (gal),FUEL R LEVEL (gal),OIL P PRESSURE (PSI),CTR TEMPERATURE (deg C),GP Input 13,Contacts,Percent Power,EGT Leaning State,
51953.940,1493.38,2,9,2021-03-29 14:25:53,-33.59043,+21.82771,8396,54.8,283.6,+26.8,,,,,14:25:54,+11.2,-0.6,306.7,61.6,+8014,-0.2,-0.01,+0.9,62,+366,+12,71.1,29.92,+9559,296,17,133,,165.0,-2600,,,,,,,,,,,,,,,,,,3,1,0,2000,,,5495,5495,21.9,0.0,0.0,4.6,,,10.5,13.7,,-2.0,208.3,188.0,,,,,,,,+28,,+677,,+745,,,+94.1,+111.5,+39.1,+4.6,-90,+4.996,,,+7.7,+7.5,+57.5,+24.0,,,,,
51954.060,1493.50,2,9,2021-03-29 14:25:54,-33.59042,+21.82765,8396,54.9,283.7,+26.8,,,,,14:25:54,+11.2,-0.5,306.7,61.6,+8015,-0.2,-0.01,+0.9,62,+352,+12,71.1,29.92,+9559,296,17,133,,165.0,-2600,,,,,,,,,,,,,,,,,,3,0,0,2000,,,5495,5495,21.9,0.0,0.0,4.6,,,10.5,13.7,,-2.0,208.3,188.0,,,,,,,,+28,,+676,,+745,,,+94.0,+111.4,+39.1,+4.6,-90,+4.996,,,+7.7,+7.5,+57.5,+23.6,,,,,
51954.180,1493.62,2,9,2021-03-29 14:25:54,-33.59040,+21.82759,8398,55.1,283.7,+26.8,,,,,14:25:54,+11.1,-0.4,306.8,61.8,+8015,-0.1,-0.01,+0.9,62,+344,+12,71.3,29.92,+9559,296,17,133,,165.0,-2600,,,,,,,,,,,,,,,,,,3,0,0,2000,,,5498,5498,21.9,0.0,0.0,4.6,,,10.5,13.7,,-2.0,208.3,188.0,,,,,,,,+28,,+676,,+745,,,+93.9,+111.2,+39.1,+4.6,-90,+4.996,,,+7.6,+7.5,+57.4,+22.1,,,,,
51954.310,1493.75,2,9,2021-03-29 14:25:54,-33.59040,+21.82759,8398,55.1,283.7,+26.8,,,,,14:25:54,+11.0,-0.4,306.9,62.0,+8015,-0.1,-0.01,+0.9,62,+331,+12,71.6,29.92,+9559,296,17,133,,165.0,-2600,,,,,,,,,,,,,,,,,,3,0,0,2000,,,5498,5498,21.9,0.0,0.0,4.7,,,10.5,13.7,,-2.0,208.3,188.0,,,,,,,,+28,,+676,,+745,,,+93.9,+111.1,+39.1,+4.7,-90,+4.996,,,+7.6,+7.5,+57.5,+23.8,,,,,
51954.440,1493.88,2,9,2021-03-29 14:25:54,-33.59039,+21.82753,8399,55.3,283.8,+26.8,,,,,14:25:54,+10.7,-0.4,306.9,62.3,+8016,-0.0,-0.01,+0.9,62,+324,+12,71.9,29.92,+9559,296,17,133,,165.0,-2600,,,,,,,,,,,,,,,,,,3,0,0,2000,,,5500,5500,21.9,0.0,0.0,4.8,,,10.5,13.7,,-2.0,208.3,188.0,,,,,,,,+28,,+676,,+745,,,+94.0,+111.2,+39.1,+4.8,-90,+4.996,,,+7.6,+7.5,+57.5,+24.2,,,,,
51954.560,1494.00,2,9,2021-03-29 14:25:54,-33.59038,+21.82747,8400,55.5,283.9,+26.8,,,,,14:25:54,+10.5,-0.4,307.0,62.4,+8016,-0.0,-0.01,+0.9,61,+316,+12,72.0,29.92,+9559,296,17,133,,165.0,-2600,,,,,,,,,,,,,,,,,,3,0,0,2000,,,5500,5500,21.9,0.0,0.0,4.8,,,10.5,13.7,,-2.0,208.3,188.0,,,,,,,,+28,,+676,,+745,,,+94.0,+111.3,+39.1,+4.8,-90,+4.996,,,+7.6,+7.5,+57.4,+23.4,,,,,
51954.680,1494.12,2,9,2021-03-29 14:25:54,-33.59038,+21.82747,8400,55.5,283.9,+26.8,,,,,14:25:54,+10.2,-0.3,307.0,62.6,+8017,+0.0,-0.01,+0.9,61,+301,+12,72.2,29.92,+9559,296,17,133,,165.0,-2600,,,,,,,,,,,,,,,,,,3,0,0,2000,,,5498,5498,21.9,0.0,0.0,4.9,,,10.5,13.7,,-2.0,208.3,188.0,,,,,,,,+28,,+676,,+745,,,+94.0,+111.3,+39.1,+4.9,-90,+4.996,,,+7.6,+7.5,+57.5,+24.5,,,,,
51954.810,1494.25,2,9,2021-03-29 14:25:54,-33.59037,+21.82741,8401,55.6,283.9,+26.8,,,,,14:25:55,+9.9,-0.3,307.1,62.7,+8017,+0.1,-0.01,+0.9,61,+294,+12,72.3,29.92,+9559,296,17,133,,165.0,-2600,,,,,,,,,,,,,,,,,,3,0,0,2000,,,5498,5498,21.9,0.0,0.0,4.9,,,10.5,13.7,,-2.0,208.3,188.0,,,,,,,,+28,,+676,,+745,,,+93.9,+111.2,+39.1,+4.9,-90,+4.996,,,+7.6,+7.5,+57.5,+24.4,,,,,
51954.940,1494.38,2,9,2021-03-29 14:25:54,-33.59037,+21.82741,8402,55.6,283.9,+26.8,,,,,14:25:55,+9.6,-0.3,307.1,62.8,+8017,+0.1,-0.01,+0.9,60,+284,+12,72.5,29.92,+9559,296,17,133,,165.0,-2600,,,,,,,,,,,,,,,,,,3,0,0,2000,,,5500,5500,21.9,0.0,0.0,4.9,,,10.5,13.7,,-2.0,208.3,188.0,,,,,,,,+28,,+676,,+745,,,+93.9,+111.2,+39.1,+4.9,-90,+4.996,,,+7.6,+7.5,+57.5,+24.1,,,,,
51955.060,1494.50,2,9,2021-03-29 14:25:55,-33.59035,+21.82735,8402,55.8,284.0,+26.8,,,,,14:25:55,+9.2,-0.3,307.1,63.0,+8018,+0.1,-0.01,+0.9,59,+274,+12,72.8,29.92,+9559,296,17,133,,165.0,-2600,,,,,,,,,,,,,,,,,,3,0,0,2000,,,5500,5500,21.9,0.0,0.0,4.9,,,10.5,13.7,,-2.0,208.3,188.0,,,,,,,,+28,,+676,,+745,,,+94.1,+111.5,+39.1,+4.9,-90,+4.996,,,+7.6,+7.5,+57.5,+26.2,,,,,
51955.180,1494.62,2,9,2021-03-29 14:25:55,-33.59034,+21.82729,8403,56.2,284.1,+26.8,,,,,14:25:55,+9.0,-0.3,307.2,63.4,+8018,+0.1,-0.01,+0.9,58,+259,+12,73.1,29.92,+9559,296,17,133,,165.0,-2600,,,,,,,,,,,,,,,,,,3,1,0,2000,,,5501,5501,21.9,0.0,0.0,4.9,,,10.5,13.7,,-2.0,208.3,188.0,,,,,,,,+28,,+676,,+745,,,+94.1,+111.5,+39.1,+4.9,-90,+4.996,,,+7.6,+7.5,+57.4,+25.7,,,,,
51955.310,1494.75,2,9,2021-03-29 14:25:55,-33.59034,+21.82729,8403,56.2,284.1,+26.8,,,,,14:25:55,+8.6,-0.2,307.3,63.8,+8018,+0.1,-0.01,+0.9,58,+239,+12,73.6,29.92,+9559,296,17,133,,165.0,-2600,,,,,,,,,,,,,,,,,,3,1,0,2000,,,5501,5501,21.9,0.0,0.0,4.8,,,10.5,13.7,,-2.0,208.3,188.0,,,,,,,,+28,,+676,,+745,,,+94.0,+111.3,+39.1,+4.8,-90,+4.996,,,+7.6,+7.5,+57.3,+24.3,,,,,
51955.440,1494.88,2,9,2021-03-29 14:25:55,-33.59033,+21.82723,8403,56.5,284.3,+26.8,,,,,14:25:55,+8.4,-0.0,307.4,63.8,+8018,+0.1,-0.01,+0.9,57,+228,+12,73.6,29.92,+9559,296,17,133,,165.0,-2600,,,,,,,,,,,,,,,,,,3,1,0,2000,,,5505,5505,21.9,0.0,0.0,4.8,,,10.5,13.7,,-2.0,208.3,188.0,,,,,,,,+28,,+676,,+745,,,+93.9,+111.1,+39.1,+4.8,-90,+4.996,,,+7.6,+7.5,+57.4,+24.5,,,,,
51955.560,1495.00,2,9,2021-03-29 14:25:55,-33.59032,+21.82717,8404,56.7,284.2,+26.8,,,,,14:25:55,+8.2,+0.1,307.5,64.0,+8018,+0.2,-0.01,+0.9,58,+210,+12,73.9,29.92,+9559,296,17,133,,165.0,-2600,,,,,,,,,,,,,,,,,,3,1,0,2000,,,5505,5505,21.9,0.0,0.0,4.7,,,10.5,13.7,,-2.0,208.3,188.0,,,,,,,,+28,,+676,,+745,,,+93.8,+111.0,+39.1,+4.7,-90,+4.996,,,+7.6,+7.5,+57.4,+24.3,,,,,
51955.680,1495.12,2,9,2021-03-29 14:25:55,-33.59032,+21.82717,8404,56.7,284.2,+26.8,,,,,14:25:55,+8.0,+0.3,307.6,64.1,+8018,+0.2,-0.01,+0.9,58,+183,+12,74.0,29.92,+9559,296,17,133,,165.0,-2600,,,,,,,,,,,,,,,,,,3,1,0,2000,,,5503,5503,21.9,0.0,0.0,4.7,,,10.5,13.7,,-2.0,208.3,188.0,,,,,,,,+28,,+676,,+745,,,+93.9,+111.2,+39.1,+4.7,-90,+4.996,,,+7.6,+7.5,+57.4,+23.7,,,,,
51955.810,1495.25,2,9,2021-03-29 14:25:55,-33.59030,+21.82710,8404,57.0,284.2,+26.8,,,,,14:25:56,+7.9,+0.4,307.8,64.3,+8018,+0.3,-0.01,+0.9,57,+173,+12,74.2,29.92,+9559,296,17,133,,165.0,-2600,,,,,,,,,,,,,,,,,,3,1,0,2000,,,5503,5503,21.9,0.0,0.0,4.7,,,10.5,13.7,,-2.0,208.3,188.0,,,,,,,,+28,,+676,,+745,,,+94.0,+111.3,+39.1,+4.7,-90,+4.996,,,+7.6,+7.5,+57.4,+24.4,,,,,
51955.940,1495.38,2,9,2021-03-29 14:25:55,-33.59030,+21.82710,8404,57.0,284.2,+26.8,,,,,14:25:56,+7.8,+0.5,308.0,64.4,+8018,+0.4,-0.01,+0.9,58,+169,+12,74.3,29.92,+9559,296,17,133,,165.0,-2600,,,,,,,,,,,,,,,,,,3,1,0,2000,,,5501,5501,21.9,0.0,0.0,4.8,,,10.5,13.7,,-2.0,208.3,188.0,,,,,,,,+28,,+677,,+745,,,+94.0,+111.3,+39.0,+4.8,-90,+4.996,,,+7.6,+7.5,+57.4,+23.5,,,,,
51956.060,1495.50,2,9,2021-03-29 14:25:56,-33.59029,+21.82704,8404,57.3,284.4,+26.8,,,,,14:25:56,+7.8,+0.6,308.1,64.6,+8018,+0.5,-0.01,+0.9,58,+165,+12,74.6,29.92,+9559,296,17,133,,165.0,-2600,,,,,,,,,,,,,,,,,,3,1,0,2000,,,5501,5501,21.9,0.0,0.0,4.8,,,10.5,13.7,,-2.0,208.3,188.0,,,,,,,,+28,,+677,,+745,,,+93.9,+111.2,+39.0,+4.8,-90,+4.996,,,+7.6,+7.5,+57.4,+23.6,,,,,
51956.180,1495.62,2,9,2021-03-29 14:25:56,-33.59027,+21.82698,8405,57.6,284.5,+26.8,,,,,14:25:56,+7.6,+0.7,308.2,65.0,+8018,+0.5,-0.02,+0.9,57,+143,+12,75.1,29.92,+9565,296,17,133,,165.0,-2600,,,,,,,,,,,,,,,,,,3,1,0,2000,,,5502,5502,21.9,0.0,0.0,4.8,,,10.5,13.7,,-2.0,208.3,188.0,,,,,,,,+28,,+676,,+744,,,+94.0,+111.2,+39.0,+4.8,-90,+4.996,,,+7.6,+7.5,+57.5,+23.8,,,,,
51956.310,1495.75,2,9,2021-03-29 14:25:56,-33.59027,+21.82698,8405,57.6,284.5,+26.8,,,,,14:25:56,+7.5,+0.7,308.2,65.1,+8018,+0.5,-0.02,+0.9,57,+138,+12,75.1,29.92,+9564,296,17,133,,165.0,-2600,,,,,,,,,,,,,,,,,,3,0,0,2000,,,5502,5502,21.9,0.0,0.0,4.9,,,10.5,13.7,,-2.0,208.3,188.0,,,,,,,,+28,,+676,,+744,,,+94.1,+111.4,+39.0,+4.9,-90,+4.996,,,+7.6,+7.5,+57.5,+24.3,,,,,
51956.440,1495.88,2,9,2021-03-29 14:25:56,-33.59026,+21.82692,8404,57.9,284.5,+26.8,,,,,14:25:56,+7.3,+0.4,308.1,65.3,+8018,+0.5,-0.02,+0.9,57,+128,+12,75.3,29.92,+9564,296,17,133,,165.0,-2600,,,,,,,,,,,,,,,,,,3,0,0,2000,,,5502,5502,21.9,0.0,0.0,4.8,,,10.5,13.7,,-2.0,208.3,188.0,,,,,,,,+28,,+676,,+744,,,+94.1,+111.5,+39.0,+4.8,-90,+4.996,,,+7.6,+7.5,+57.4,+25.4,,,,,
51956.560,1496.00,2,9,2021-03-29 14:25:56,-33.59025,+21.82685,8404,58.3,284.8,+26.8,,,,,14:25:56,+7.3,+0.1,308.0,65.5,+8018,+0.4,-0.02,+0.9,57,+121,+12,75.6,29.92,+9564,296,17,133,,165.0,-2600,,,,,,,,,,,,,,,,,,3,0,0,2000,,,5502,5502,21.9,0.0,0.0,4.8,,,10.5,13.7,,-2.0,208.3,188.0,,,,,,,,+28,,+676,,+745,,,+94.0,+111.3,+39.0,+4.8,-90,+4.996,,,+7.6,+7.5,+57.2,+25.7,,,,,
51956.680,1496.12,2,9,2021-03-29 14:25:56,-33.59025,+21.82685,8404,58.3,284.8,+26.8,,,,,14:25:56,+7.2,-0.3,307.9,65.6,+8018,+0.3,-0.02,+1.0,57,+106,+12,75.7,29.92,+9564,296,17,133,,165.0,-2600,,,,,,,,,,,,,,,,,,3,0,0,2000,,,5506,5506,21.9,0.0,0.0,4.8,,,10.5,13.7,,-2.0,208.3,188.0,,,,,,,,+28,,+676,,+745,,,+93.8,+111.2,+39.0,+4.8,-90,+4.996,,,+7.6,+7.5,+57.3,+25.1,,,,,
51956.810,1496.25,2,9,2021-03-29 14:25:56,-33.59024,+21.82679,8404,58.6,284.7,+26.8,,,,,14:25:57,+7.2,-0.7,307.8,65.7,+8018,+0.2,-0.02,+0.9,57,+93,+12,75.8,29.92,+9564,296,17,133,,165.0,-2600,,,,,,,,,,,,,,,,,,3,0,0,2000,,,5506,5506,21.9,0.0,0.0,4.8,,,10.5,13.7,,-2.0,208.3,188.0,,,,,,,,+28,,+676,,+744,,,+93.8,+111.0,+39.0,+4.8,-90,+4.996,,,+7.6,+7.5,+57.3,+24.8,,,,,
51956.940,1496.38,2,9,2021-03-29 14:25:56,-33.59024,+21.82679,8404,58.6,284.7,+26.8,,,,,14:25:57,+7.2,-1.0,307.7,65.8,+8018,+0.0,-0.02,+0.9,57,+78,+12,76.0,29.92,+9564,296,17,133,,165.0,-2600,,,,,,,,,,,,,,,,,,3,1,0,2000,,,5507,5507,21.9,0.0,0.0,4.8,,,10.5,13.7,,-2.0,208.3,188.0,,,,,,,,+28,,+676,,+744,,,+93.8,+111.2,+39.0,+4.8,-90,+4.996,,,+7.6,+7.5,+57.4,+25.2,,,,,
51957.060,1496.50,2,9,2021-03-29 14:25:57,-33.59023,+21.82672,8404,59.1,284.7,+26.8,,,,,14:25:57,+7.2,-1.3,307.6,66.0,+8018,-0.1,-0.01,+1.0,57,+58,+12,76.2,29.92,+9564,296,17,133,,165.0,-2600,,,,,,,,,,,,,,,,,,3,1,0,2000,,,5507,5507,21.9,0.0,0.0,4.8,,,10.5,13.7,,-2.0,208.3,188.0,,,,,,,,+28,,+676,,+744,,,+93.9,+111.3,+39.0,+4.8,-90,+4.996,,,+7.6,+7.5,+57.5,+24.3,,,,,
51957.180,1496.62,2,9,2021-03-29 14:25:57,-33.59021,+21.82666,8402,59.4,284.4,+26.8,,,,,14:25:57,+7.2,-1.4,307.5,66.2,+8018,-0.2,-0.01,+1.0,57,+33,+12,76.5,29.92,+9564,296,17,133,,165.0,-2600,,,,,,,,,,,,,,,,,,3,1,0,2000,,,5502,5502,21.9,0.0,0.0,4.7,,,10.5,13.7,,-2.0,208.3,188.0,,,,,,,,+28,,+676,,+744,,,+93.9,+111.3,+39.0,+4.7,-90,+4.996,,,+7.6,+7.5,+57.5,+24.4,,,,,
51957.310,1496.75,2,9,2021-03-29 14:25:57,-33.59021,+21.82666,8402,59.4,284.4,+26.8,,,,,14:25:57,+7.2,-1.5,307.5,66.4,+8018,-0.3,-0.01,+1.0,57,+22,+12,76.6,29.92,+9564,296,17,133,,165.0,-2600,,,,,,,,,,,,,,,,,,3,1,0,2000,,,5502,5502,21.9,0.0,0.0,4.7,,,10.5,13.7,,-2.0,208.3,188.0,,,,,,,,+28,,+676,,+744,,,+93.8,+111.2,+39.0,+4.7,-90,+4.996,,,+7.6,+7.5,+57.4,+24.6,,,,,
51957.440,1496.88,2,9,2021-03-29 14:25:57,-33.59020,+21.82659,8401,59.9,284.7,+26.8,,,,,14:25:57,+7.2,-1.6,307.4,66.4,+8018,-0.4,-0.01,+1.0,57,+8,+12,76.6,29.92,+9564,296,17,133,,165.0,-2600,,,,,,,,,,,,,,,,,,3,1,0,2000,,,5509,5509,21.9,0.0,0.0,4.6,,,10.5,13.7,,-2.0,208.3,188.0,,,,,,,,+28,,+676,,+744,,,+93.9,+111.2,+39.0,+4.6,-90,+4.996,,,+7.6,+7.5,+57.4,+23.7,,,,,
51957.560,1497.00,2,9,2021-03-29 14:25:57,-33.59018,+21.82653,8401,60.2,284.6,+26.8,,,,,14:25:57,+7.2,-1.6,307.4,66.6,+8018,-0.4,-0.01,+1.0,57,-5,+12,76.8,29.92,+9564,296,17,133,,165.0,-2600,,,,,,,,,,,,,,,,,,3,1,0,2000,,,5509,5509,21.9,0.0,0.0,4.7,,,10.5,13.7,,-2.0,208.3,188.0,,,,,,,,+28,,+676,,+744,,,+94.0,+111.5,+39.0,+4.7,-90,+4.996,,,+7.6,+7.5,+57.4,+23.5,,,,,
51957.680,1497.12,2,9,2021-03-29 14:25:57,-33.59018,+21.82653,8401,60.2,284.6,+26.8,,,,,14:25:57,+7.2,-1.6,307.4,66.8,+8018,-0.5,-0.01,+1.0,56,-21,+12,77.1,29.92,+9564,296,17,133,,165.0,-2600,,,,,,,,,,,,,,,,,,3,1,0,2000,,,5508,5508,21.9,0.0,0.0,4.8,,,10.5,13.7,,-2.0,208.3,188.0,,,,,,,,+28,,+676,,+744,,,+94.0,+111.5,+39.0,+4.8,-90,+4.996,,,+7.6,+7.5,+57.4,+25.0,,,,,
51957.810,1497.25,2,9,2021-03-29 14:25:57,-33.59017,+21.82647,8400,60.4,284.4,+26.8,,,,,14:25:58,+7.2,-1.6,307.4,66.9,+8018,-0.5,-0.01,+1.0,56,-32,+12,77.2,29.92,+9564,296,17,133,,165.0,-2600,,,,,,,,,,,,,,,,,,3,1,0,2000,,,5508,5508,21.9,0.0,0.0,4.8,,,10.5,13.7,,-2.0,208.3,188.0,,,,,,,,+28,,+676,,+744,,,+93.9,+111.3,+39.0,+4.8,-90,+4.996,,,+7.6,+7.5,+57.4,+23.9,,,,,
51957.940,1497.38,2,9,2021-03-29 14:25:57,-33.59017,+21.82647,8400,60.4,284.4,+26.8,,,,,14:25:58,+7.1,-1.6,307.4,67.4,+8018,-0.4,-0.01,+1.0,56,-43,+12,77.8,29.92,+9564,296,17,133,,165.0,-2600,,,,,,,,,,,,,,,,,,3,1,0,2000,,,5507,5507,21.9,0.0,0.0,4.8,,,10.5,13.7,,-2.0,208.3,188.0,,,,,,,,+28,,+675,,+744,,,+93.8,+111.1,+39.0,+4.8,-90,+4.996,,,+7.6,+7.5,+57.5,+23.2,,,,,
51958.060,1497.50,2,9,2021-03-29 14:25:58,-33.59016,+21.82640,8400,60.9,284.4,+26.8,,,,,14:25:58,+7.0,-1.5,307.4,67.4,+8018,-0.4,-0.01,+1.0,55,-54,+12,77.8,29.92,+9564,296,17,133,,165.0,-2600,,,,,,,,,,,,,,,,,,3,0,0,2000,,,5507,5507,21.9,0.0,0.0,4.8,,,10.5,13.7,,-2.0,208.3,188.0,,,,,,,,+28,,+675,,+744,,,+93.8,+111.0,+39.0,+4.8,-90,+4.996,,,+7.6,+7.5,+57.5,+24.6,,,,,
51958.180,1497.62,2,9,2021-03-29 14:25:58,-33.59014,+21.82633,8399,61.1,284.3,+26.8,,,,,14:25:58,+6.9,-1.4,307.4,67.6,+8018,-0.4,-0.01,+1.0,55,-68,+12,78.0,29.92,+9564,296,17,133,,165.0,-2600,,,,,,,,,,,,,,,,,,3,0,0,2000,,,5509,5509,21.9,0.0,0.0,4.8,,,10.5,13.7,,-2.0,208.3,188.0,,,,,,,,+28,,+676,,+744,,,+93.8,+111.2,+39.0,+4.8,-90,+4.996,,,+7.6,+7.5,+57.4,+24.3,,,,,
51958.310,1497.75,2,9,2021-03-29 14:25:58,-33.59014,+21.82633,8399,61.1,284.3,+26.8,,,,,14:25:58,+6.8,-1.3,307.5,67.7,+8018,-0.4,-0.01,+0.9,55,-78,+12,78.1,29.92,+9564,296,17,133,,165.0,-2600,,,,,,,,,,,,,,,,,,3,0,0,2000,,,5509,5509,21.9,0.0,0.0,4.7,,,10.5,13.7,,-2.0,208.3,188.0,,,,,,,,+28,,+676,,+744,,,+93.8,+111.2,+39.0,+4.7,-90,+4.996,,,+7.6,+7.5,+57.5,+23.8,,,,,
51958.440,1497.88,2,9,2021-03-29 14:25:58,-33.59013,+21.82627,8399,61.4,284.2,+26.8,,,,,14:25:58,+6.7,-1.1,307.5,67.9,+8018,-0.3,-0.01,+1.0,54,-88,+12,78.4,29.92,+9564,296,17,133,,165.0,-2600,,,,,,,,,,,,,,,,,,3,0,0,2000,,,5510,5510,21.9,0.0,0.0,4.8,,,10.5,13.7,,-2.0,208.3,188.0,,,,,,,,+28,,+676,,+744,,,+93.9,+111.2,+39.0,+4.8,-90,+4.996,,,+7.6,+7.5,+57.5,+25.0,,,,,
51958.560,1498.00,2,9,2021-03-29 14:25:58,-33.59011,+21.82620,8398,62.0,284.4,+26.8,,,,,14:25:58,+6.6,-0.9,307.6,68.0,+8018,-0.3,-0.01,+0.9,54,-93,+12,78.5,29.92,+9564,296,17,133,,165.0,-2600,,,,,,,,,,,,,,,,,,3,0,0,2000,,,5510,5510,21.9,0.0,0.0,4.8,,,10.5,13.7,,-2.0,208.3,188.0,,,,,,,,+28,,+676,,+744,,,+93.8,+111.2,+39.0,+4.8,-90,+4.996,,,+7.6,+7.5,+57.4,+24.2,,,,,
51958.680,1498.12,2,9,2021-03-29 14:25:58,-33.59011,+21.82620,8398,62.0,284.4,+26.8,,,,,14:25:58,+6.5,-0.7,307.7,68.2,+8018,-0.2,-0.01,+1.0,54,-108,+12,78.8,29.92,+9564,296,17,133,,165.0,-2600,,,,,,,,,,,,,,,,,,3,0,0,2000,,,5511,5511,21.9,0.0,0.0,4.8,,,10.5,13.7,,-2.0,208.3,188.0,,,,,,,,+28,,+676,,+744,,,+93.9,+111.2,+39.0,+4.8,-90,+4.996,,,+7.6,+7.5,+57.2,+23.5,,,,,
51958.810,1498.25,2,9,2021-03-29 14:25:58,-33.59010,+21.82614,8398,62.4,284.5,+26.8,,,,,14:25:59,+6.5,-0.4,307.7,68.4,+8018,-0.1,-0.01,+1.0,54,-118,+12,79.0,29.92,+9564,296,17,133,,165.0,-2600,,,,,,,,,,,,,,,,,,3,0,0,2000,,,5511,5511,21.9,0.0,0.0,4.8,,,10.5,13.7,,-2.0,208.3,188.0,,,,,,,,+28,,+676,,+744,,,+94.0,+111.4,+39.0,+4.8,-90,+4.996,,,+7.6,+7.5,+57.2,+23.8,,,,,
51958.940,1498.38,2,9,2021-03-29 14:25:58,-33.59010,+21.82614,8397,62.4,284.5,+26.8,,,,,14:25:59,+6.5,-0.2,307.8,68.7,+8018,-0.0,-0.01,+1.0,54,-127,+12,79.2,29.92,+9564,296,17,133,,165.0,-2600,,,,,,,,,,,,,,,,,,3,0,0,2000,,,5510,5510,21.9,0.0,0.0,4.8,,,10.5,13.7,,-2.0,208.3,188.0,,,,,,,,+28,,+676,,+744,,,+94.0,+111.5,+39.0,+4.8,-90,+4.998,,,+7.6,+7.5,+57.3,+24.1,,,,,
51959.060,1498.50,2,9,2021-03-29 14:25:59,-33.59008,+21.82607,8397,62.7,284.6,+26.8,,,,,14:25:59,+6.5,+0.0,307.9,68.8,+8018,+0.1,-0.01,+1.0,54,-135,+12,79.4,29.92,+9564,296,17,133,,165.0,-2600,,,,,,,,,,,,,,,,,,3,0,0,2000,,,5510,5510,21.9,0.0,0.0,4.8,,,10.5,13.7,,-2.0,208.3,188.0,,,,,,,,+28,,+676,,+744,,,+93.9,+111.3,+39.0,+4.8,-90,+4.996,,,+7.6,+7.5,+57.4,+24.2,,,,,
51959.180,1498.62,2,9,2021-03-29 14:25:59,-33.59007,+21.82600,8396,62.9,284.5,+26.8,,,,,14:25:59,+6.5,+0.2,308.0,69.0,+8017,+0.1,-0.01,+1.0,54,-143,+12,79.6,29.92,+9563,296,17,133,,165.0,-2600,,,,,,,,,,,,,,,,,,3,1,0,2000,,,5511,5511,21.9,0.0,0.0,4.7,,,10.5,13.7,,-2.0,208.3,188.0,,,,,,,,+28,,+676,,+744,,,+93.8,+111.1,+39.0,+4.7,-90,+4.996,,,+7.6,+7.5,+57.5,+25.3,,,,,
51959.310,1498.75,2,9,2021-03-29 14:25:59,-33.59007,+21.82600,8396,62.9,284.5,+26.8,,,,,14:25:59,+6.5,+0.4,308.1,69.5,+8016,+0.2,-0.01,+1.0,54,-144,+12,80.2,29.92,+9562,296,17,133,,165.0,-2600,,,,,,,,,,,,,,,,,,3,1,0,2000,,,5511,5511,21.9,0.0,0.0,4.8,,,10.5,13.7,,-2.0,208.3,188.0,,,,,,,,+28,,+676,,+744,,,+93.8,+111.0,+39.0,+4.8,-90,+4.996,,,+7.6,+7.5,+57.6,+24.6,,,,,
51959.440,1498.88,2,9,2021-03-29 14:25:59,-33.59005,+21.82593,8395,63.5,284.6,+26.8,,,,,14:25:59,+6.5,+0.5,308.1,69.7,+8016,+0.2,-0.01,+1.0,54,-151,+12,80.5,29.92,+9562,296,17,133,,165.0,-2600,,,,,,,,,,,,,,,,,,3,1,0,2000,,,5512,5512,21.9,0.0,0.0,4.8,,,10.5,13.7,,-2.0,208.3,188.0,,,,,,,,+28,,+676,,+744,,,+93.8,+111.2,+39.0,+4.8,-90,+4.996,,,+7.6,+7.5,+57.7,+24.0,,,,,
51959.560,1499.00,2,9,2021-03-29 14:25:59,-33.59004,+21.82586,8394,63.7,284.5,+26.8,,,,,14:25:59,+6.5,+0.7,308.1,69.7,+8015,+0.3,-0.01,+1.0,54,-159,+12,80.5,29.92,+9561,296,17,133,,165.0,-2600,,,,,,,,,,,,,,,,,,3,1,0,2000,,,5512,5512,21.9,0.0,0.0,4.8,,,10.5,13.7,,-2.0,208.3,188.0,,,,,,,,+28,,+675,,+744,,,+93.9,+111.3,+39.0,+4.8,-90,+4.996,,,+7.6,+7.5,+57.7,+24.3,,,,,
51959.680,1499.12,2,9,2021-03-29 14:25:59,-33.59004,+21.82586,8394,63.7,284.5,+26.8,,,,,14:25:59,+6.4,+0.8,308.1,69.8,+8014,+0.3,-0.01,+1.0,54,-172,+12,80.6,29.92,+9560,296,17,133,,165.0,-2600,,,,,,,,,,,,,,,,,,3,1,0,2000,,,5514,5514,21.9,0.0,0.0,4.8,,,10.5,13.7,,-2.0,208.3,188.0,,,,,,,,+28,,+675,,+744,,,+93.9,+111.2,+39.0,+4.8,-90,+4.996,,,+7.6,+7.5,+57.6,+24.2,,,,,
51959.810,1499.25,2,9,2021-03-29 14:25:59,-33.59002,+21.82579,8393,64.1,284.7,+26.8,,,,,14:26:00,+6.4,+0.8,308.0,69.8,+8014,+0.2,-0.01,+1.0,53,-174,+12,80.6,29.92,+9560,296,17,133,,165.0,-2600,,,,,,,,,,,,,,,,,,3,1,0,2000,,,5514,5514,21.9,0.0,0.0,4.8,,,10.5,13.7,,-2.0,208.3,188.0,,,,,,,,+28,,+675,,+744,,,+93.8,+111.1,+39.0,+4.8,-90,+4.998,,,+7.6,+7.5,+57.6,+25.7,,,,,
51959.940,1499.38,2,9,2021-03-29 14:25:59,-33.59002,+21.82579,8392,64.1,284.7,+26.8,,,,,14:26:00,+6.4,+0.8,308.0,69.8,+8013,+0.2,-0.01,+1.0,53,-175,+12,80.6,29.92,+9547,296,17,133,,165.0,-2600,,,,,,,,,,,,,,,,,,3,1,0,2000,,,5512,5512,21.9,0.0,0.0,4.8,,,10.5,13.7,,-2.0,208.3,188.0,,,,,,,,+28,,+675,,+745,,,+93.9,+111.2,+39.0,+4.8,-90,+4.998,,,+7.6,+7.5,+57.4,+28.0,,,,,
51960.060,1499.50,2,9,2021-03-29 14:26:00,-33.59001,+21.82573,8392,64.6,284.9,+26.8,,,,,14:26:00,+6.4,+0.8,307.9,70.0,+8013,+0.2,-0.01,+1.0,53,-181,+12,80.8,29.92,+9547,296,17,133,,165.0,-2600,,,,,,,,,,,,,,,,,,3,1,0,2000,,,5512,5512,21.9,0.0,0.0,4.8,,,10.5,13.7,,-2.0,208.3,188.0,,,,,,,,+28,,+675,,+745,,,+94.0,+111.4,+39.0,+4.8,-90,+4.998,,,+7.6,+7.5,+57.5,+28.5,,,,,
51960.180,1499.62,2,9,2021-03-29 14:26:00,-33.58999,+21.82565,8391,65.0,285.0,+26.8,,,,,14:26:00,+6.4,+0.5,307.9,70.3,+8013,+0.1,-0.01,+1.0,53,-189,+12,81.1,29.92,+9547,296,17,133,,165.0,-2600,,,,,,,,,,,,,,,,,,3,1,0,2000,,,5512,5512,21.9,0.0,0.0,4.8,,,10.5,13.7,,-2.0,208.3,188.0,,,,,,,,+28,,+676,,+745,,,+94.0,+111.4,+39.0,+4.8,-90,+4.998,,,+7.6,+7.5,+57.5,+28.1,,,,,
51960.310,1499.75,2,9,2021-03-29 14:26:00,-33.58999,+21.82565,8391,65.0,285.0,+26.8,,,,,14:26:00,+6.4,+0.2,307.8,70.5,+8012,+0.0,-0.01,+1.0,53,-198,+12,81.4,29.92,+9547,296,17,133,,165.0,-2600,,,,,,,,,,,,,,,,,,3,0,0,2000,,,5512,5512,21.9,0.0,0.0,4.8,,,10.5,13.7,,-2.0,208.3,188.0,,,,,,,,+28,,+676,,+745,,,+93.8,+111.3,+39.0,+4.8,-90,+4.998,,,+7.6,+7.5,+57.6,+28.1,,,,,
51960.440,1499.88,2,9,2021-03-29 14:26:00,-33.58997,+21.82558,8390,65.3,285.0,+26.8,,,,,14:26:00,+6.4,-0.1,307.8,70.7,+8011,-0.0,-0.01,+1.0,53,-194,+12,81.6,29.92,+9545,296,17,133,,165.0,-2600,,,,,,,,,,,,,,,,,,3,0,0,2000,,,5514,5514,21.9,0.0,0.0,4.8,,,10.5,13.7,,-2.0,208.3,188.0,,,,,,,,+28,,+676,,+745,,,+93.7,+111.0,+39.0,+4.8,-90,+4.998,,,+7.6,+7.5,+57.7,+27.1,,,,,
51960.560,1500.00,2,9,2021-03-29 14:26:00,-33.58996,+21.82551,8388,65.7,285.1,+26.8,,,,,14:26:00,+6.4,-0.2,307.8,71.0,+8011,-0.0,-0.01,+1.0,52,-201,+12,81.9,29.92,+9545,296,17,133,,165.0,-2600,,,,,,,,,,,,,,,,,,3,0,0,2000,,,5514,5514,21.9,0.0,0.0,4.8,,,10.5,13.7,,-2.0,208.3,188.0,,,,,,,,+28,,+675,,+744,,,+93.7,+111.0,+39.0,+4.8,-90,+4.996,,,+7.6,+7.5,+57.8,+26.2,,,,,
51960.680,1500.12,2,9,2021-03-29 14:26:00,-33.58996,+21.82551,8388,65.7,285.1,+26.8,,,,,14:26:00,+6.4,-0.3,307.8,71.2,+8010,-0.1,-0.01,+1.0,52,-208,+12,82.1,29.92,+9545,296,17,133,,165.0,-2600,,,,,,,,,,,,,,,,,,3,0,0,2000,,,5513,5513,21.9,0.0,0.0,4.8,,,10.5,13.7,,-2.0,208.3,188.0,,,,,,,,+28,,+675,,+744,,,+93.7,+111.1,+39.0,+4.8,-90,+4.996,,,+7.6,+7.5,+57.8,+27.3,,,,,
51960.810,1500.25,2,9,2021-03-29 14:26:00,-33.58994,+21.82544,8387,65.9,285.1,+26.8,,,,,14:26:01,+6.3,-0.3,307.8,71.6,+8009,-0.1,-0.01,+1.0,51,-215,+12,82.6,29.92,+9543,296,17,133,,165.0,-2600,,,,,,,,,,,,,,,,,,3,0,0,2000,,,5513,5513,21.9,0.0,0.0,4.8,,,10.5,13.7,,-2.0,208.3,188.0,,,,,,,,+28,,+675,,+744,,,+93.8,+111.2,+39.0,+4.8,-90,+4.996,,,+7.6,+7.5,+57.7,+27.3,,,,,
51960.940,1500.38,2,9,2021-03-29 14:26:00,-33.58994,+21.82544,8386,65.9,285.1,+26.8,,,,,14:26:01,+6.2,-0.3,307.8,71.6,+8008,-0.1,-0.01,+1.0,51,-225,+12,82.6,29.92,+9541,296,17,133,,165.0,-2600,,,,,,,,,,,,,,,,,,3,1,0,2000,,,5515,5515,21.9,0.0,0.0,4.8,,,10.5,13.7,,-2.0,208.3,188.0,,,,,,,,+28,,+675,,+745,,,+93.8,+111.2,+39.0,+4.8,-90,+4.996,,,+7.6,+7.5,+57.7,+27.4,,,,,
51961.060,1500.50,2,9,2021-03-29 14:26:01,-33.58993,+21.82537,8386,66.4,285.2,+26.8,,,,,14:26:01,+6.1,-0.3,307.8,72.0,+8008,-0.1,-0.01,+1.0,50,-228,+12,83.0,29.92,+9541,296,17,133,,165.0,-2600,,,,,,,,,,,,,,,,,,3,1,0,2000,,,5515,5515,21.9,0.0,0.0,4.9,,,10.5,13.7,,-2.0,208.3,188.0,,,,,,,,+28,,+676,,+745,,,+93.7,+111.1,+39.0,+4.9,-90,+4.996,,,+7.6,+7.5,+57.7,+28.6,,,,,
51961.180,1500.62,2,9,2021-03-29 14:26:01,-33.58991,+21.82530,8385,66.6,285.2,+26.8,,,,,14:26:01,+6.0,-0.3,307.8,72.0,+8008,-0.1,-0.01,+1.0,50,-238,+12,83.0,29.92,+9540,296,17,133,,165.0,-2600,,,,,,,,,,,,,,,,,,3,1,0,2000,,,5514,5514,21.9,0.0,0.0,4.8,,,10.5,13.7,,-2.0,208.3,188.0,,,,,,,,+28,,+676,,+745,,,+93.8,+111.2,+39.0,+4.8,-90,+4.996,,,+7.6,+7.5,+57.8,+27.3,,,,,
51961.310,1500.75,2,9,2021-03-29 14:26:01,-33.58991,+21.82530,8385,66.6,285.2,+26.8,,,,,14:26:01,+5.9,-0.3,307.8,72.1,+8007,-0.1,-0.01,+1.0,50,-240,+12,83.2,29.92,+9539,296,17,133,,165.0,-2600,,,,,,,,,,,,,,,,,,3,1,0,2000,,,5514,5514,21.9,0.0,0.0,4.8,,,10.5,13.7,,-2.0,208.3,188.0,,,,,,,,+28,,+676,,+745,,,+93.9,+111.4,+39.0,+4.8,-90,+4.996,,,+7.6,+7.5,+57.9,+25.9,,,,,
51961.440,1500.88,2,9,2021-03-29 14:26:01,-33.58990,+21.82523,8384,67.0,285.3,+26.8,,,,,14:26:01,+5.9,-0.3,307.9,72.3,+8006,-0.0,-0.01,+1.0,50,-241,+12,83.4,29.92,+9538,296,17,133,,165.0,-2600,,,,,,,,,,,,,,,,,,3,1,0,2000,,,5515,5515,21.9,0.0,0.0,4.8,,,10.5,13.7,,-2.0,208.3,188.0,,,,,,,,+28,,+676,,+745,,,+93.9,+111.4,+39.0,+4.8,-90,+4.996,,,+7.6,+7.5,+57.9,+25.7,,,,,
51961.560,1501.00,2,9,2021-03-29 14:26:01,-33.58988,+21.82516,8383,67.3,285.3,+26.8,,,,,14:26:01,+5.9,-0.3,308.0,72.5,+8006,-0.0,-0.01,+1.0,50,-241,+12,83.6,29.92,+9538,296,17,133,,165.0,-2600,,,,,,,,,,,,,,,,,,3,1,0,2000,,,5515,5515,21.9,0.0,0.0,4.8,,,10.5,13.7,,-2.0,208.3,188.0,,,,,,,,+28,,+676,,+745,,,+93.8,+111.2,+39.0,+4.8,-90,+4.996,,,+7.6,+7.5,+57.7,+25.3,,,,,
51961.680,1501.12,2,9,2021-03-29 14:26:01,-33.58988,+21.82516,8383,67.3,285.3,+26.8,,,,,14:26:01,+5.9,-0.3,308.0,72.5,+8005,-0.0,-0.01,+1.0,50,-242,+12,83.7,29.92,+9537,295,17,133,,165.0,-2600,,,,,,,,,,,,,,,,,,3,1,0,2000,,,5519,5519,21.9,0.0,0.0,4.8,,,10.5,13.7,,-2.0,208.3,188.0,,,,,,,,+28,,+676,,+745,,,+93.7,+111.0,+38.9,+4.8,-90,+4.998,,,+7.6,+7.5,+57.7,+27.4,,,,,
51961.810,1501.25,2,9,2021-03-29 14:26:01,-33.58986,+21.82508,8381,67.7,285.4,+26.8,,,,,14:26:02,+5.9,-0.2,308.1,72.7,+8004,+0.0,-0.01,+1.0,50,-245,+12,83.8,29.92,+9536,295,17,133,,165.0,-2600,,,,,,,,,,,,,,,,,,3,1,0,2000,,,5519,5519,21.9,0.0,0.0,4.8,,,10.5,13.7,,-2.0,208.3,188.0,,,,,,,,+28,,+676,,+745,,,+93.6,+110.9,+38.9,+4.8,-90,+4.998,,,+7.6,+7.5,+57.9,+27.2,,,,,
51961.940,1501.38,2,9,2021-03-29 14:26:01,-33.58986,+21.82508,8380,67.7,285.4,+26.8,,,,,14:26:02,+6.0,-0.1,308.1,72.7,+8004,+0.0,-0.01,+1.0,50,-245,+12,83.9,29.92,+9536,295,17,133,,165.0,-2600,,,,,,,,,,,,,,,,,,3,1,0,2000,,,5516,5516,21.9,0.0,0.0,4.8,,,10.5,13.7,,-2.0,208.3,188.0,,,,,,,,+28,,+676,,+745,,,+93.7,+111.0,+38.9,+4.8,-90,+4.998,,,+7.6,+7.5,+58.0,+25.4,,,,,
51962.060,1501.50,2,9,2021-03-29 14:26:02,-33.58985,+21.82501,8380,67.8,285.3,+26.8,,,,,14:26:02,+6.1,-0.1,308.1,72.9,+8004,+0.1,-0.01,+1.0,50,-240,+12,84.1,29.92,+9535,295,17,133,,165.0,-2600,,,,,,,,,,,,,,,,,,3,0,0,2000,,,5516,5516,21.9,0.0,0.0,4.8,,,10.5,13.7,,-2.0,208.4,188.0,,,,,,,,+28,,+676,,+745,,,+93.7,+111.1,+38.9,+4.8,-90,+4.996,,,+7.6,+7.5,+58.0,+25.6,,,,,
51962.180,1501.62,2,9,2021-03-29 14:26:02,-33.58983,+21.82494,8379,68.3,285.4,+26.8,,,,,14:26:02,+6.1,-0.0,308.2,73.2,+8004,+0.1,-0.01,+1.0,50,-236,+12,84.4,29.92,+9535,295,17,133,,165.0,-2600,,,,,,,,,,,,,,,,,,3,0,0,2000,,,5513,5513,21.9,0.0,0.0,4.8,,,10.5,13.7,,-2.0,208.4,188.0,,,,,,,,+28,,+676,,+745,,,+93.7,+111.1,+38.9,+4.8,-90,+4.996,,,+7.6,+7.5,+57.9,+27.8,,,,,
51962.310,1501.75,2,9,2021-03-29 14:26:02,-33.58983,+21.82494,8379,68.3,285.4,+26.8,,,,,14:26:02,+6.2,+0.0,308.2,73.4,+8003,+0.1,-0.01,+1.0,50,-238,+12,84.6,29.92,+9534,295,17,133,,165.0,-2600,,,,,,,,,,,,,,,,,,3,0,0,2000,,,5513,5513,21.9,0.0,0.0,4.8,,,10.5,13.7,,-2.0,208.4,188.0,,,,,,,,+28,,+676,,+745,,,+93.7,+111.0,+38.9,+4.8,-90,+4.996,,,+7.6,+7.5,+57.9,+28.7,,,,,
51962.440,1501.88,2,9,2021-03-29 14:26:02,-33.58981,+21.82486,8378,68.5,285.4,+26.8,,,,,14:26:02,+6.2,+0.2,308.2,73.5,+8003,+0.1,-0.01,+1.0,50,-233,+12,84.8,29.92,+9534,295,17,133,,165.0,-2600,,,,,,,,,,,,,,,,,,3,0,0,2000,,,5518,5518,21.9,0.0,0.0,4.8,,,10.5,13.7,,-2.0,208.4,188.0,,,,,,,,+28,,+676,,+745,,,+93.8,+111.1,+38.9,+4.8,-90,+4.996,,,+7.6,+7.5,+57.9,+28.4,,,,,
51962.560,1502.00,2,9,2021-03-29 14:26:02,-33.58979,+21.82479,8377,68.9,285.5,+26.8,,,,,14:26:02,+6.2,+0.2,308.2,74.0,+8002,+0.1,-0.01,+1.0,49,-229,+12,85.3,29.92,+9533,295,17,133,,165.0,-2600,,,,,,,,,,,,,,,,,,3,0,0,2000,,,5518,5518,21.9,0.0,0.0,4.8,,,10.5,13.7,,-2.0,208.4,188.0,,,,,,,,+28,,+676,,+745,,,+93.9,+111.3,+38.9,+4.8,-90,+4.996,,,+7.6,+7.5,+57.9,+28.0,,,,,
51962.680,1502.12,2,9,2021-03-29 14:26:02,-33.58979,+21.82479,8377,68.9,285.5,+26.8,,,,,14:26:02,+6.1,+0.3,308.2,74.0,+8001,+0.1,-0.01,+1.0,49,-240,+12,85.3,29.92,+9532,295,17,133,,165.0,-2600,,,,,,,,,,,,,,,,,,3,0,0,2000,,,5516,5516,21.9,0.0,0.0,4.8,,,10.5,13.7,,-2.0,208.4,188.0,,,,,,,,+28,,+676,,+745,,,+93.9,+111.3,+38.9,+4.8,-90,+4.996,,,+7.6,+7.5,+58.0,+26.9,,,,,
51962.810,1502.25,2,9,2021-03-29 14:26:02,-33.58978,+21.82471,8376,69.3,285.7,+26.8,,,,,14:26:03,+6.1,+0.3,308.2,74.0,+8001,+0.1,-0.01,+1.0,48,-237,+12,85.4,29.92,+9532,295,17,133,,165.0,-2600,,,,,,,,,,,,,,,,,,3,0,0,2000,,,5516,5516,21.9,0.0,0.0,4.8,,,10.5,13.7,,-2.0,208.4,188.0,,,,,,,,+28,,+676,,+745,,,+93.8,+111.1,+38.9,+4.8,-90,+4.996,,,+7.6,+7.5,+58.1,+27.2,,,,,
51962.940,1502.38,2,9,2021-03-29 14:26:02,-33.58978,+21.82471,8375,69.3,285.7,+26.8,,,,,14:26:03,+6.1,+0.3,308.2,74.0,+8000,+0.1,-0.01,+1.0,48,-236,+12,85.3,29.92,+9531,295,17,133,,165.0,-2600,,,,,,,,,,,,,,,,,,3,0,0,2000,,,5516,5516,21.9,0.0,0.0,4.8,,,10.5,13.7,,-2.0,208.4,188.0,,,,,,,,+28,,+676,,+745,,,+93.7,+110.9,+38.9,+4.8,-90,+4.996,,,+7.6,+7.5,+58.0,+28.4,,,,,
51963.060,1502.50,2,9,2021-03-29 14:26:03,-33.58976,+21.82464,8375,69.6,285.7,+26.8,,,,,14:26:03,+6.1,+0.3,308.1,74.1,+8000,+0.0,-0.01,+1.0,48,-232,+12,85.4,29.92,+9531,295,17,133,,165.0,-2600,,,,,,,,,,,,,,,,,,3,0,0,2000,,,5516,5516,21.9,0.0,0.0,4.8,,,10.5,13.7,,-2.0,208.4,188.0,,,,,,,,+28,,+676,,+745,,,+93.6,+110.9,+38.9,+4.8,-90,+4.996,,,+7.6,+7.5,+57.9,+27.9,,,,,
51963.180,1502.62,2,9,2021-03-29 14:26:03,-33.58974,+21.82456,8374,70.0,285.9,+26.8,,,,,14:26:03,+6.2,+0.3,308.2,74.3,+7999,+0.0,-0.01,+1.0,48,-234,+12,85.7,29.92,+9530,295,17,133,,165.0,-2600,,,,,,,,,,,,,,,,,,3,1,0,2000,,,5518,5518,21.9,0.0,0.0,4.8,,,10.5,13.7,,-2.0,208.4,188.0,,,,,,,,+28,,+676,,+745,,,+93.7,+111.0,+38.9,+4.8,-90,+4.996,,,+7.7,+7.5,+57.9,+27.6,,,,,
51963.310,1502.75,2,9,2021-03-29 14:26:03,-33.58974,+21.82456,8374,70.0,285.9,+26.8,,,,,14:26:03,+6.3,+0.3,308.2,74.4,+7999,-0.0,-0.01,+1.0,48,-234,+12,85.8,29.92,+9529,295,17,133,,165.0,-2600,,,,,,,,,,,,,,,,,,3,1,0,2000,,,5518,5518,21.9,0.0,0.0,4.8,,,10.5,13.7,,-2.0,208.4,188.0,,,,,,,,+28,,+676,,+745,,,+93.7,+111.0,+38.9,+4.8,-90,+4.996,,,+7.7,+7.5,+58.0,+27.9,,,,,
51963.440,1502.88,2,9,2021-03-29 14:26:03,-33.58972,+21.82449,8374,70.3,286.0,+26.8,,,,,14:26:03,+6.4,+0.4,308.2,74.5,+7999,-0.0,-0.01,+1.0,48,-236,+12,86.0,29.92,+9529,295,17,133,,165.0,-2600,,,,,,,,,,,,,,,,,,3,1,0,2000,,,5518,5518,21.9,0.0,0.0,4.7,,,10.5,13.7,,-2.0,208.4,188.0,,,,,,,,+28,,+676,,+745,,,+93.7,+111.0,+38.9,+4.7,-90,+4.996,,,+7.7,+7.5,+58.0,+26.6,,,,,
51963.560,1503.00,2,9,2021-03-29 14:26:03,-33.58971,+21.82441,8373,70.4,286.0,+26.8,,,,,14:26:03,+6.4,+0.4,308.3,74.8,+7998,-0.0,-0.00,+1.0,48,-237,+12,86.3,29.92,+9528,295,17,133,,165.0,-2600,,,,,,,,,,,,,,,,,,3,1,0,2000,,,5518,5518,21.9,0.0,0.0,4.7,,,10.5,13.7,,-2.0,208.4,188.0,,,,,,,,+28,,+676,,+745,,,+93.7,+110.9,+38.9,+4.7,-90,+4.998,,,+7.7,+7.5,+58.0,+27.2,,,,,
51963.680,1503.12,2,9,2021-03-29 14:26:03,-33.58971,+21.82441,8373,70.4,286.0,+26.8,,,,,14:26:03,+6.5,+0.5,308.3,74.8,+7998,+0.0,-0.01,+1.0,48,-235,+12,86.3,29.92,+9528,295,17,133,,165.0,-2600,,,,,,,,,,,,,,,,,,3,1,0,2000,,,5519,5519,21.9,0.0,0.0,4.7,,,10.5,13.7,,-2.0,208.4,188.0,,,,,,,,+28,,+676,,+745,,,+93.8,+111.0,+38.9,+4.7,-90,+4.998,,,+7.7,+7.5,+58.0,+28.4,,,,,
51963.810,1503.25,2,9,2021-03-29 14:26:03,-33.58968,+21.82434,8372,70.8,286.1,+26.8,,,,,14:26:04,+6.5,+0.6,308.4,74.9,+7997,+0.1,-0.00,+1.0,48,-235,+12,86.4,29.92,+9527,295,17,133,,165.0,-2600,,,,,,,,,,,,,,,,,,3,1,0,2000,,,5519,5519,21.9,0.0,0.0,4.8,,,10.5,13.7,,-2.0,208.4,188.0,,,,,,,,+28,,+676,,+745,,,+93.8,+111.2,+38.9,+4.8,-90,+4.998,,,+7.7,+7.5,+58.0,+26.6,,,,,
51963.940,1503.38,2,9,2021-03-29 14:26:03,-33.58968,+21.82434,8372,70.8,286.1,+26.8,,,,,14:26:04,+6.5,+0.6,308.5,75.0,+7996,+0.1,-0.00,+1.0,48,-238,+12,86.5,29.92,+9526,295,17,133,,165.0,-2600,,,,,,,,,,,,,,,,,,3,1,0,2000,,,5517,5517,21.9,0.0,0.0,4.8,,,10.5,13.7,,-2.0,208.4,188.0,,,,,,,,+28,,+676,,+745,,,+93.9,+111.3,+38.9,+4.8,-90,+4.998,,,+7.7,+7.5,+57.9,+27.4,,,,,
51964.060,1503.50,2,9,2021-03-29 14:26:04,-33.58967,+21.82426,8372,71.1,286.2,+26.8,,,,,14:26:04,+6.6,+0.7,308.6,75.1,+7996,+0.1,-0.00,+1.0,48,-232,+12,86.6,29.92,+9526,295,17,133,,165.0,-2600,,,,,,,,,,,,,,,,,,3,1,0,2000,,,5517,5517,21.9,0.0,0.0,4.7,,,10.5,13.7,,-2.0,208.4,188.0,,,,,,,,+28,,+676,,+745,,,+93.7,+111.0,+38.9,+4.7,-90,+4.998,,,+7.7,+7.5,+58.0,+27.9,,,,,
51964.180,1503.62,2,9,2021-03-29 14:26:04,-33.58965,+21.82418,8371,71.3,286.3,+26.8,,,,,14:26:04,+6.6,+0.8,308.6,75.2,+7995,+0.2,-0.00,+1.0,47,-233,+12,86.8,29.92,+9525,295,17,133,,165.0,-2600,,,,,,,,,,,,,,,,,,3,1,0,2000,,,5516,5516,21.9,0.0,0.0,4.7,,,10.5,13.7,,-2.0,208.4,188.0,,,,,,,,+28,,+676,,+745,,,+93.6,+110.8,+38.9,+4.7,-90,+4.998,,,+7.7,+7.5,+58.0,+27.0,,,,,
51964.310,1503.75,2,9,2021-03-29 14:26:04,-33.58965,+21.82418,8371,71.3,286.3,+26.8,,,,,14:26:04,+6.6,+0.8,308.7,75.3,+7995,+0.2,-0.00,+1.0,47,-233,+12,86.9,29.92,+9525,295,17,133,,165.0,-2600,,,,,,,,,,,,,,,,,,3,0,0,2000,,,5516,5516,21.9,0.0,0.0,4.8,,,10.5,13.7,,-2.0,208.4,188.0,,,,,,,,+28,,+676,,+745,,,+93.6,+110.8,+38.9,+4.8,-90,+4.998,,,+7.7,+7.5,+58.0,+28.1,,,,,
51964.440,1503.88,2,9,2021-03-29 14:26:04,-33.58963,+21.82411,8371,71.4,286.3,+26.8,,,,,14:26:04,+6.6,+0.8,308.7,75.4,+7995,+0.2,-0.01,+1.0,47,-228,+12,86.9,29.92,+9524,295,17,133,,165.0,-2600,,,,,,,,,,,,,,,,,,3,0,0,2000,,,5520,5520,21.9,0.0,0.0,4.8,,,10.5,13.7,,-2.0,208.4,188.0,,,,,,,,+28,,+676,,+745,,,+93.7,+110.9,+38.9,+4.8,-90,+4.996,,,+7.7,+7.5,+58.1,+29.4,,,,,
51964.560,1504.00,2,9,2021-03-29 14:26:04,-33.58961,+21.82403,8370,71.8,286.5,+26.8,,,,,14:26:04,+6.6,+0.8,308.7,75.5,+7995,+0.3,-0.01,+1.0,46,-221,+12,87.1,29.92,+9524,295,17,133,,165.0,-2600,,,,,,,,,,,,,,,,,,3,0,0,2000,,,5520,5520,21.9,0.0,0.0,4.8,,,10.5,13.7,,-2.0,208.4,188.0,,,,,,,,+28,,+676,,+745,,,+93.7,+110.9,+38.9,+4.8,-90,+4.996,,,+7.7,+7.5,+58.1,+27.9,,,,,
51964.680,1504.12,2,9,2021-03-29 14:26:04,-33.58961,+21.82403,8370,71.8,286.5,+26.8,,,,,14:26:04,+6.7,+0.8,308.7,75.6,+7995,+0.3,-0.01,+1.0,46,-213,+12,87.3,29.92,+9524,295,17,133,,165.0,-2600,,,,,,,,,,,,,,,,,,3,0,0,2000,,,5516,5516,21.9,0.0,0.0,4.8,,,10.5,13.7,,-2.0,208.4,188.0,,,,,,,,+28,,+676,,+745,,,+93.7,+110.9,+38.9,+4.8,-90,+4.998,,,+7.7,+7.5,+58.0,+28.1,,,,,
51964.810,1504.25,2,9,2021-03-29 14:26:04,-33.58959,+21.82396,8370,71.9,286.5,+26.8,,,,,14:26:05,+6.7,+0.7,308.7,75.7,+7994,+0.3,-0.01,+1.0,46,-209,+12,87.3,29.92,+9523,295,17,133,,165.0,-2600,,,,,,,,,,,,,,,,,,3,0,0,2000,,,5516,5516,21.9,0.0,0.0,4.8,,,10.5,13.7,,-2.0,208.4,188.0,,,,,,,,+28,,+676,,+745,,,+93.6,+110.8,+38.9,+4.8,-90,+4.998,,,+7.7,+7.5,+57.9,+27.7,,,,,
51964.940,1504.38,2,9,2021-03-29 14:26:04,-33.58959,+21.82396,8369,71.9,286.5,+26.8,,,,,14:26:05,+6.7,+0.4,308.6,75.8,+7994,+0.2,-0.01,+1.0,46,-201,+12,87.4,29.92,+9523,295,17,133,,165.0,-2600,,,,,,,,,,,,,,,,,,3,1,0,2000,,,5516,5516,21.9,0.0,0.0,4.7,,,10.5,13.7,,-2.0,208.4,188.0,,,,,,,,+28,,+676,,+745,,,+93.7,+111.0,+38.9,+4.7,-90,+4.998,,,+7.7,+7.5,+57.9,+27.9,,,,,
51965.060,1504.50,2,9,2021-03-29 14:26:05,-33.58957,+21.82388,8369,72.2,286.7,+26.8,,,,,14:26:05,+6.7,+0.1,308.5,75.9,+7994,+0.2,-0.01,+1.0,46,-198,+12,87.6,29.92,+9523,295,17,133,,165.0,-2600,,,,,,,,,,,,,,,,,,3,1,0,2000,,,5516,5516,21.9,0.0,0.0,4.7,,,10.5,13.7,,-2.0,208.4,188.0,,,,,,,,+28,,+676,,+745,,,+93.8,+111.2,+38.9,+4.7,-90,+4.998,,,+7.7,+7.5,+57.9,+29.3,,,,,
51965.180,1504.62,2,9,2021-03-29 14:26:05,-33.58955,+21.82380,8369,72.4,286.8,+26.8,,,,,14:26:05,+6.7,-0.2,308.4,76.1,+7993,+0.1,-0.01,+1.0,45,-201,+12,87.8,29.92,+9522,295,17,133,,165.0,-2600,,,,,,,,,,,,,,,,,,3,1,0,2000,,,5513,5513,21.9,0.0,0.0,4.7,,,10.5,13.7,,-2.0,208.4,188.0,,,,,,,,+28,,+676,,+745,,,+93.8,+111.1,+38.9,+4.7,-90,+4.996,,,+7.7,+7.5,+58.0,+29.7,,,,,
51965.310,1504.75,2,9,2021-03-29 14:26:05,-33.58955,+21.82380,8369,72.4,286.8,+26.8,,,,,14:26:05,+6.7,-0.5,308.3,76.2,+7993,+0.0,-0.01,+1.0,46,-195,+12,87.9,29.92,+9522,295,17,133,,165.0,-2600,,,,,,,,,,,,,,,,,,3,1,0,2000,,,5513,5513,21.9,0.0,0.0,4.6,,,10.5,13.7,,-2.0,208.4,188.0,,,,,,,,+28,,+676,,+745,,,+93.6,+110.9,+38.9,+4.6,-90,+4.996,,,+7.7,+7.5,+58.1,+29.0,,,,,
51965.440,1504.88,2,9,2021-03-29 14:26:05,-33.58953,+21.82372,8368,72.7,286.9,+26.8,,,,,14:26:05,+6.7,-0.8,308.3,76.3,+7993,-0.1,-0.00,+1.0,45,-187,+12,88.0,29.92,+9522,295,17,133,,165.0,-2600,,,,,,,,,,,,,,,,,,3,1,0,2000,,,5522,5522,21.9,0.0,0.0,4.6,,,10.5,13.7,,-2.0,208.4,188.0,,,,,,,,+28,,+676,,+745,,,+93.6,+110.7,+38.9,+4.6,-90,+4.998,,,+7.7,+7.5,+58.1,+30.0,,,,,
51965.560,1505.00,2,9,2021-03-29 14:26:05,-33.58951,+21.82364,8368,73.0,286.9,+26.8,,,,,14:26:05,+6.7,-1.0,308.2,76.6,+7993,-0.2,-0.00,+1.0,45,-179,+12,88.4,29.92,+9522,295,17,133,,165.0,-2600,,,,,,,,,,,,,,,,,,3,1,0,2000,,,5522,5522,21.9,0.0,0.0,4.6,,,10.5,13.7,,-2.0,208.4,188.0,,,,,,,,+28,,+676,,+745,,,+93.5,+110.7,+38.9,+4.6,-90,+4.998,,,+7.7,+7.5,+58.1,+30.3,,,,,
51965.680,1505.12,2,9,2021-03-29 14:26:05,-33.58951,+21.82364,8368,73.0,286.9,+26.8,,,,,14:26:05,+6.6,-1.0,308.2,76.6,+7992,-0.2,-0.00,+1.0,45,-178,+12,88.4,29.92,+9521,294,17,133,,165.0,-2600,,,,,,,,,,,,,,,,,,3,1,0,2000,,,5516,5516,21.9,0.0,0.0,4.6,,,10.5,13.7,,-2.0,208.4,188.0,,,,,,,,+28,,+676,,+745,,,+93.6,+110.8,+38.9,+4.6,-90,+4.998,,,+7.7,+7.5,+58.1,+30.7,,,,,
51965.810,1505.25,2,9,2021-03-29 14:26:05,-33.58949,+21.82356,8368,73.2,286.9,+26.8,,,,,14:26:06,+6.6,-1.0,308.3,76.6,+7992,-0.2,-0.00,+1.0,44,-169,+12,88.4,29.92,+9521,294,17,133,,165.0,-2600,,,,,,,,,,,,,,,,,,3,1,0,2000,,,5516,5516,21.9,0.0,0.0,4.7,,,10.5,13.7,,-2.0,208.4,188.0,,,,,,,,+28,,+676,,+745,,,+93.6,+110.8,+38.9,+4.7,-90,+4.998,,,+7.7,+7.5,+58.1,+31.3,,,,,
51965.940,1505.38,2,9,2021-03-29 14:26:05,-33.58949,+21.82356,8367,73.2,286.9,+26.8,,,,,14:26:06,+6.6,-1.0,308.3,76.7,+7992,-0.2,+0.00,+1.0,44,-155,+12,88.5,29.92,+9521,294,17,133,,165.0,-2600,,,,,,,,,,,,,,,,,,3,1,0,2000,,,5517,5517,21.9,0.0,0.0,4.7,,,10.5,13.7,,-2.0,208.4,188.0,,,,,,,,+28,,+676,,+745,,,+93.6,+110.8,+38.9,+4.7,-90,+4.998,,,+7.7,+7.5,+58.0,+30.4,,,,,
51966.060,1505.50,2,9,2021-03-29 14:26:06,-33.58947,+21.82349,8367,73.4,287.0,+26.8,,,,,14:26:06,+6.6,-0.9,308.4,76.8,+7992,-0.2,-0.00,+1.0,44,-148,+12,88.6,29.92,+9521,294,17,133,,165.0,-2600,,,,,,,,,,,,,,,,,,3,0,0,2000,,,5517,5517,21.9,0.0,0.0,4.7,,,10.5,13.7,,-2.0,208.4,188.0,,,,,,,,+28,,+676,,+745,,,+93.6,+110.8,+38.9,+4.7,-90,+4.996,,,+7.7,+7.5,+58.0,+29.1,,,,,
51966.180,1505.62,2,9,2021-03-29 14:26:06,-33.58945,+21.82341,8368,73.6,287.0,+26.8,,,,,14:26:06,+6.5,-0.8,308.4,77.1,+7992,-0.2,-0.00,+1.0,44,-143,+12,88.9,29.92,+9521,294,17,133,,165.0,-2600,,,,,,,,,,,,,,,,,,3,0,0,2000,,,5518,5518,21.9,0.0,0.0,4.8,,,10.5,13.7,,-2.0,208.4,188.0,,,,,,,,+28,,+676,,+745,,,+93.7,+110.9,+38.9,+4.8,-90,+4.996,,,+7.7,+7.5,+58.0,+29.6,,,,,
51966.310,1505.75,2,9,2021-03-29 14:26:06,-33.58945,+21.82341,8368,73.6,287.0,+26.8,,,,,14:26:06,+6.5,-0.7,308.4,77.1,+7992,-0.1,-0.00,+1.0,44,-135,+12,88.9,29.92,+9521,294,17,133,,165.0,-2600,,,,,,,,,,,,,,,,,,3,0,0,2000,,,5518,5518,21.9,0.0,0.0,4.8,,,10.5,13.7,,-2.0,208.4,188.0,,,,,,,,+28,,+676,,+745,,,+93.8,+111.0,+38.9,+4.8,-90,+4.996,,,+7.7,+7.5,+58.1,+29.3,,,,,
51966.440,1505.88,2,9,2021-03-29 14:26:06,-33.58943,+21.82333,8368,73.8,287.0,+26.8,,,,,14:26:06,+6.5,-0.7,308.5,77.1,+7992,-0.1,-0.00,+1.0,44,-128,+12,88.9,29.92,+9521,294,17,133,,165.0,-2600,,,,,,,,,,,,,,,,,,3,0,0,2000,,,5518,5518,21.9,0.0,0.0,4.7,,,10.5,13.7,,-2.0,208.4,188.0,,,,,,,,+28,,+676,,+745,,,+93.8,+111.0,+38.9,+4.7,-90,+4.996,,,+7.7,+7.5,+58.1,+29.2,,,,,
51966.560,1506.00,2,9,2021-03-29 14:26:06,-33.58941,+21.82325,8368,74.0,287.0,+26.8,,,,,14:26:06,+6.5,-0.7,308.5,77.2,+7992,-0.1,-0.00,+1.0,44,-121,+12,89.0,29.92,+9510,294,17,133,,165.0,-2600,,,,,,,,,,,,,,,,,,3,0,0,2000,,,5518,5518,21.9,0.0,0.0,4.7,,,10.5,13.7,,-2.0,208.4,188.0,,,,,,,,+28,,+676,,+745,,,+93.7,+110.8,+38.9,+4.7,-90,+4.998,,,+7.7,+7.5,+58.2,+29.9,,,,,
51966.680,1506.12,2,9,2021-03-29 14:26:06,-33.58941,+21.82325,8368,74.0,287.0,+26.8,,,,,14:26:06,+6.5,-0.7,308.5,77.2,+7992,-0.1,-0.00,+1.0,44,-114,+12,89.1,29.92,+9510,293,17,133,,165.0,-2600,,,,,,,,,,,,,,,,,,3,0,0,2000,,,5516,5516,21.9,0.0,0.0,4.7,,,10.5,13.7,,-2.0,208.4,188.0,,,,,,,,+28,,+676,,+745,,,+93.6,+110.7,+38.9,+4.7,-90,+4.998,,,+7.7,+7.5,+58.3,+29.8,,,,,
51966.810,1506.25,2,9,2021-03-29 14:26:06,-33.58939,+21.82317,8368,74.2,287.0,+26.8,,,,,14:26:07,+6.5,-0.7,308.5,77.4,+7992,-0.1,-0.00,+1.0,44,-108,+12,89.2,29.92,+9510,293,17,133,,165.0,-2600,,,,,,,,,,,,,,,,,,3,0,0,2000,,,5516,5516,21.9,0.0,0.0,4.7,,,10.5,13.7,,-2.0,208.4,188.0,,,,,,,,+28,,+676,,+745,,,+93.5,+110.6,+38.9,+4.7,-90,+4.998,,,+7.7,+7.5,+58.3,+29.6,,,,,
51966.940,1506.38,2,9,2021-03-29 14:26:06,-33.58939,+21.82317,8368,74.2,287.0,+26.8,,,,,14:26:07,+6.6,-0.6,308.5,77.6,+7992,-0.1,-0.00,+1.0,45,-102,+12,89.5,29.92,+9510,293,17,133,,165.0,-2600,,,,,,,,,,,,,,,,,,3,0,0,2000,,,5517,5517,21.9,0.0,0.0,4.7,,,10.5,13.7,,-2.0,208.4,188.0,,,,,,,,+28,,+676,,+745,,,+93.6,+110.7,+38.9,+4.7,-90,+4.998,,,+7.7,+7.5,+58.3,+30.0,,,,,
51967.060,1506.50,2,9,2021-03-29 14:26:07,-33.58937,+21.82309,8368,74.4,287.1,+26.8,,,,,14:26:07,+6.6,-0.6,308.5,77.7,+7992,-0.1,-0.00,+1.0,45,-95,+12,89.6,29.92,+9510,293,17,133,,165.0,-2600,,,,,,,,,,,,,,,,,,3,0,0,2000,,,5517,5517,21.9,0.0,0.0,4.8,,,10.5,13.7,,-2.0,208.4,188.0,,,,,,,,+28,,+676,,+745,,,+93.7,+110.8,+38.9,+4.8,-90,+4.998,,,+7.7,+7.5,+58.3,+29.0,,,,,
51967.180,1506.62,2,9,2021-03-29 14:26:07,-33.58935,+21.82302,8367,74.5,287.0,+26.8,,,,,14:26:07,+6.6,-0.6,308.5,77.8,+7992,-0.1,-0.00,+1.0,45,-89,+12,89.7,29.92,+9510,293,17,133,,165.0,-2600,,,,,,,,,,,,,,,,,,3,1,0,2000,,,5519,5519,21.9,0.0,0.0,4.8,,,10.5,13.7,,-2.0,208.4,188.0,,,,,,,,+28,,+676,,+745,,,+93.6,+110.7,+38.9,+4.8,-90,+4.998,,,+7.7,+7.5,+58.3,+28.4,,,,,
51967.310,1506.75,2,9,2021-03-29 14:26:07,-33.58935,+21.82302,8367,74.5,287.0,+26.8,,,,,14:26:07,+6.6,-0.6,308.5,77.8,+7992,-0.1,-0.00,+1.0,44,-85,+12,89.7,29.92,+9510,293,17,133,,165.0,-2600,,,,,,,,,,,,,,,,,,3,1,0,2000,,,5519,5519,21.9,0.0,0.0,4.8,,,10.5,13.7,,-2.0,208.4,188.0,,,,,,,,+28,,+676,,+745,,,+93.6,+110.6,+38.9,+4.8,-90,+4.998,,,+7.7,+7.5,+58.3,+28.4,,,,,
51967.440,1506.88,2,9,2021-03-29 14:26:07,-33.58933,+21.82294,8367,74.9,287.1,+26.8,,,,,14:26:07,+6.6,-0.7,308.5,77.9,+7992,-0.1,-0.00,+1.0,44,-75,+12,89.8,29.92,+9510,293,17,133,,165.0,-2600,,,,,,,,,,,,,,,,,,3,1,0,2000,,,5519,5519,21.9,0.0,0.0,4.8,,,10.5,13.7,,-2.0,208.4,188.0,,,,,,,,+28,,+676,,+745,,,+93.7,+110.8,+38.9,+4.8,-90,+4.996,,,+7.7,+7.5,+58.4,+28.4,,,,,
51967.560,1507.00,2,9,2021-03-29 14:26:07,-33.58931,+21.82286,8367,75.1,287.2,+26.8,,,,,14:26:07,+6.6,-0.7,308.5,78.0,+7992,-0.2,-0.00,+1.0,44,-73,+12,90.0,29.92,+9510,293,17,133,,165.0,-2600,,,,,,,,,,,,,,,,,,3,1,0,2000,,,5519,5519,21.9,0.0,0.0,4.8,,,10.5,13.7,,-2.0,208.4,188.0,,,,,,,,+28,,+676,,+745,,,+93.8,+111.0,+38.9,+4.8,-90,+4.996,,,+7.7,+7.5,+58.3,+29.7,,,,,
51967.680,1507.12,2,9,2021-03-29 14:26:07,-33.58931,+21.82286,8367,75.1,287.2,+26.8,,,,,14:26:07,+6.6,-0.7,308.5,78.1,+7992,-0.2,-0.00,+1.0,43,-69,+12,90.0,29.92,+9510,293,17,133,,165.0,-2600,,,,,,,,,,,,,,,,,,3,1,0,2000,,,5521,5521,21.9,0.0,0.0,4.8,,,10.5,13.7,,-2.0,208.4,188.0,,,,,,,,+28,,+676,,+745,,,+93.8,+110.9,+38.9,+4.8,-90,+4.996,,,+7.7,+7.5,+58.3,+30.7,,,,,
51967.810,1507.25,2,9,2021-03-29 14:26:07,-33.58929,+21.82278,8367,75.4,287.2,+26.8,,,,,14:26:08,+6.6,-0.7,308.5,78.3,+7992,-0.2,-0.00,+1.0,43,-65,+12,90.3,29.92,+9510,293,17,133,,165.0,-2600,,,,,,,,,,,,,,,,,,3,1,0,2000,,,5521,5521,21.9,0.0,0.0,4.8,,,10.5,13.7,,-2.0,208.4,188.0,,,,,,,,+28,,+676,,+745,,,+93.6,+110.7,+38.9,+4.8,-90,+4.996,,,+7.7,+7.5,+58.2,+29.8,,,,,
51967.940,1507.38,2,9,2021-03-29 14:26:07,-33.58929,+21.82278,8367,75.4,287.2,+26.8,,,,,14:26:08,+6.6,-0.7,308.6,78.3,+7992,-0.1,-0.00,+1.0,43,-60,+12,90.3,29.92,+9510,293,17,133,,165.0,-2600,,,,,,,,,,,,,,,,,,3,1,0,2000,,,5520,5520,21.9,0.0,0.0,4.8,,,10.5,13.7,,-2.0,208.4,188.0,,,,,,,,+28,,+676,,+745,,,+93.6,+110.6,+38.9,+4.8,-90,+4.996,,,+7.7,+7.5,+58.3,+29.3,,,,,
51968.060,1507.50,2,9,2021-03-29 14:26:08,-33.58926,+21.82270,8367,75.6,287.3,+26.8,,,,,14:26:08,+6.6,-0.7,308.6,78.3,+7992,-0.1,-0.00,+1.0,43,-52,+12,90.3,29.92,+9510,293,17,133,,165.0,-2600,,,,,,,,,,,,,,,,,,3,1,0,2000,,,5520,5520,21.9,0.0,0.0,4.8,,,10.5,13.7,,-2.0,208.4,188.0,,,,,,,,+28,,+676,,+745,,,+93.5,+110.5,+38.9,+4.8,-90,+4.996,,,+7.7,+7.5,+58.3,+29.1,,,,,
51968.180,1507.62,2,9,2021-03-29 14:26:08,-33.58924,+21.82261,8367,75.8,287.3,+26.8,,,,,14:26:08,+6.6,-0.7,308.7,78.4,+7992,-0.1,+0.00,+1.0,43,-45,+12,90.4,29.92,+9510,293,17,133,,165.0,-2600,,,,,,,,,,,,,,,,,,3,1,0,2000,,,5517,5517,21.9,0.0,0.0,4.8,,,10.5,13.7,,-2.0,208.4,188.0,,,,,,,,+28,,+676,,+745,,,+93.6,+110.6,+38.9,+4.8,-90,+4.996,,,+7.7,+7.5,+58.3,+28.8,,,,,
51968.310,1507.75,2,9,2021-03-29 14:26:08,-33.58924,+21.82261,8367,75.8,287.3,+26.8,,,,,14:26:08,+6.6,-0.7,308.7,78.5,+7992,-0.1,+0.00,+1.0,43,-38,+12,90.5,29.92,+9510,293,17,133,,165.0,-2600,,,,,,,,,,,,,,,,,,3,0,0,2000,,,5517,5517,21.9,0.0,0.0,4.8,,,10.5,13.7,,-2.0,208.4,188.0,,,,,,,,+28,,+676,,+745,,,+93.6,+110.6,+38.9,+4.8,-90,+4.998,,,+7.7,+7.5,+58.3,+29.4,,,,,
51968.440,1507.88,2,9,2021-03-29 14:26:08,-33.58923,+21.82253,8367,75.9,287.3,+26.8,,,,,14:26:08,+6.6,-0.8,308.8,78.5,+7992,-0.1,-0.00,+1.0,43,-38,+12,90.5,29.92,+9510,293,17,133,,165.0,-2600,,,,,,,,,,,,,,,,,,3,0,0,2000,,,5519,5519,21.9,0.0,0.0,4.8,,,10.5,13.7,,-2.0,208.4,188.0,,,,,,,,+28,,+676,,+745,,,+93.6,+110.6,+38.9,+4.8,-90,+4.998,,,+7.7,+7.5,+58.3,+29.9,,,,,
51968.560,1508.00,2,9,2021-03-29 14:26:08,-33.58920,+21.82245,8367,76.1,287.3,+26.8,,,,,14:26:08,+6.6,-0.8,308.8,78.6,+7992,-0.0,-0.00,+1.0,43,-38,+12,90.7,29.92,+9510,293,17,133,,165.0,-2600,,,,,,,,,,,,,,,,,,3,0,0,2000,,,5519,5519,21.9,0.0,0.0,4.8,,,10.5,13.7,,-2.0,208.4,188.0,,,,,,,,+28,,+676,,+745,,,+93.5,+110.4,+38.9,+4.8,-90,+4.996,,,+7.7,+7.5,+58.1,+29.2,,,,,
51968.680,1508.12,2,9,2021-03-29 14:26:08,-33.58920,+21.82245,8367,76.1,287.3,+26.8,,,,,14:26:08,+6.6,-0.8,308.8,78.7,+7992,-0.0,+0.00,+1.0,43,-34,+12,90.7,29.92,+9510,292,17,133,,165.0,-2600,,,,,,,,,,,,,,,,,,3,0,0,2000,,,5518,5518,21.9,0.0,0.0,4.8,,,10.5,13.7,,-2.0,208.4,188.0,,,,,,,,+28,,+676,,+745,,,+93.5,+110.4,+38.9,+4.8,-90,+4.996,,,+7.7,+7.5,+58.1,+28.9,,,,,
51968.810,1508.25,2,9,2021-03-29 14:26:08,-33.58918,+21.82237,8368,76.3,287.4,+26.8,,,,,14:26:09,+6.6,-0.8,308.8,78.8,+7992,+0.0,-0.00,+1.0,42,-26,+12,90.8,29.92,+9510,292,17,133,,165.0,-2600,,,,,,,,,,,,,,,,,,3,0,0,2000,,,5518,5518,21.9,0.0,0.0,4.7,,,10.5,13.7,,-2.0,208.4,188.0,,,,,,,,+28,,+676,,+745,,,+93.7,+110.7,+38.9,+4.7,-90,+4.998,,,+7.7,+7.5,+58.2,+29.5,,,,,
51968.940,1508.38,2,9,2021-03-29 14:26:08,-33.58918,+21.82237,8368,76.3,287.4,+26.8,,,,,14:26:09,+6.6,-0.8,308.8,78.8,+7992,+0.0,-0.00,+1.0,42,-20,+12,90.8,29.92,+9510,292,17,133,,165.0,-2600,,,,,,,,,,,,,,,,,,3,1,0,2000,,,5516,5516,21.9,0.0,0.0,4.7,,,10.5,13.7,,-2.0,208.4,188.0,,,,,,,,+28,,+676,,+745,,,+93.7,+110.8,+38.9,+4.7,-90,+4.998,,,+7.7,+7.5,+58.2,+29.3,,,,,
51969.060,1508.50,2,9,2021-03-29 14:26:09,-33.58916,+21.82229,8368,76.4,287.3,+26.8,,,,,14:26:09,+6.6,-0.9,308.8,78.9,+7992,+0.0,-0.00,+1.0,42,-8,+12,91.0,29.92,+9510,292,17,133,,165.0,-2600,,,,,,,,,,,,,,,,,,3,1,0,2000,,,5516,5516,21.9,0.0,0.0,4.6,,,10.5,13.7,,-2.0,208.4,188.0,,,,,,,,+28,,+676,,+745,,,+93.6,+110.6,+38.8,+4.6,-90,+4.998,,,+7.7,+7.5,+58.3,+29.8,,,,,
51969.180,1508.62,2,9,2021-03-29 14:26:09,-33.58914,+21.82221,8368,76.6,287.3,+26.8,,,,,14:26:09,+6.6,-1.0,308.7,79.0,+7992,+0.0,-0.00,+1.0,42,-3,+12,91.1,29.92,+9510,292,17,133,,165.0,-2600,,,,,,,,,,,,,,,,,,3,1,0,2000,,,5520,5520,21.9,0.0,0.0,4.7,,,10.5,13.7,,-2.0,208.4,188.0,,,,,,,,+28,,+676,,+745,,,+93.5,+110.4,+38.8,+4.7,-90,+4.998,,,+7.7,+7.5,+58.4,+29.6,,,,,
51969.310,1508.75,2,9,2021-03-29 14:26:09,-33.58914,+21.82221,8368,76.6,287.3,+26.8,,,,,14:26:09,+6.5,-1.0,308.7,79.1,+7992,-0.0,-0.00,+1.0,42,+2,+12,91.3,29.92,+9510,292,17,133,,165.0,-2600,,,,,,,,,,,,,,,,,,3,1,0,2000,,,5520,5520,21.9,0.0,0.0,4.7,,,10.5,13.7,,-2.0,208.4,188.0,,,,,,,,+28,,+676,,+745,,,+93.5,+110.4,+38.8,+4.7,-90,+4.998,,,+7.7,+7.5,+58.5,+28.7,,,,,
51969.440,1508.88,2,9,2021-03-29 14:26:09,-33.58912,+21.82213,8368,76.7,287.4,+26.8,,,,,14:26:09,+6.4,-1.1,308.7,79.2,+7992,-0.0,-0.00,+1.0,42,+12,+12,91.4,29.92,+9510,292,17,133,,165.0,-2600,,,,,,,,,,,,,,,,,,3,1,0,2000,,,5517,5517,21.9,0.0,0.0,4.6,,,10.5,13.7,,-2.0,208.4,188.0,,,,,,,,+28,,+676,,+745,,,+93.6,+110.5,+38.8,+4.6,-90,+4.998,,,+7.7,+7.5,+58.5,+29.4,,,,,
51969.560,1509.00,2,9,2021-03-29 14:26:09,-33.58910,+21.82204,8368,76.9,287.4,+26.8,,,,,14:26:09,+6.3,-1.1,308.6,79.5,+7992,-0.1,-0.00,+1.0,41,+17,+12,91.7,29.92,+9500,292,17,133,,165.0,-2600,,,,,,,,,,,,,,,,,,3,1,0,2000,,,5517,5517,21.9,0.0,0.0,4.7,,,10.5,13.7,,-2.0,208.4,188.0,,,,,,,,+28,,+676,,+745,,,+93.6,+110.6,+38.8,+4.7,-90,+4.998,,,+7.7,+7.5,+58.4,+31.7,,,,,
51969.680,1509.12,2,9,2021-03-29 14:26:09,-33.58910,+21.82204,8368,76.9,287.4,+26.8,,,,,14:26:09,+6.2,-1.1,308.6,79.5,+7992,-0.1,-0.00,+1.0,41,+22,+12,91.7,29.92,+9502,292,17,133,,165.0,-2600,,,,,,,,,,,,,,,,,,3,1,0,2000,,,5520,5520,21.9,0.0,0.0,4.7,,,10.5,13.7,,-2.0,208.4,188.0,,,,,,,,+28,,+676,,+745,,,+93.6,+110.6,+38.8,+4.7,-90,+4.998,,,+7.7,+7.5,+58.3,+30.5,,,,,
51969.810,1509.25,2,9,2021-03-29 14:26:09,-33.58907,+21.82196,8369,77.1,287.4,+26.8,,,,,14:26:10,+6.2,-1.1,308.5,79.6,+7992,-0.1,-0.00,+1.0,40,+22,+12,91.7,29.92,+9502,292,17,133,,165.0,-2600,,,,,,,,,,,,,,,,,,3,1,0,2000,,,5520,5520,21.9,0.0,0.0,4.7,,,10.5,13.7,,-2.0,208.4,188.0,,,,,,,,+28,,+676,,+746,,,+93.5,+110.4,+38.8,+4.7,-90,+4.996,,,+7.7,+7.5,+58.2,+29.3,,,,,
51969.940,1509.38,2,9,2021-03-29 14:26:09,-33.58907,+21.82196,8369,77.1,287.4,+26.8,,,,,14:26:10,+6.1,-1.2,308.5,79.7,+7992,-0.2,-0.00,+1.0,40,+32,+12,91.9,29.92,+9502,292,17,133,,165.0,-2600,,,,,,,,,,,,,,,,,,3,1,0,2000,,,5519,5519,21.9,0.0,0.0,4.8,,,10.5,13.7,,-2.0,208.4,188.0,,,,,,,,+28,,+676,,+746,,,+93.6,+110.6,+38.8,+4.8,-90,+4.996,,,+7.7,+7.5,+58.2,+30.2,,,,,
51970.060,1509.50,2,9,2021-03-29 14:26:10,-33.58905,+21.82188,8369,77.2,287.3,+26.8,,,,,14:26:10,+6.0,-1.2,308.5,79.8,+7992,-0.2,-0.00,+1.0,40,+42,+12,92.1,29.92,+9502,292,17,133,,165.0,-2600,,,,,,,,,,,,,,,,,,3,0,0,2000,,,5519,5519,21.9,0.0,0.0,4.7,,,10.5,13.7,,-2.0,208.4,188.0,,,,,,,,+28,,+676,,+746,,,+93.7,+110.8,+38.8,+4.7,-90,+4.996,,,+7.7,+7.5,+58.3,+30.2,,,,,
51970.180,1509.62,2,9,2021-03-29 14:26:10,-33.58903,+21.82180,8369,77.4,287.4,+26.8,,,,,14:26:10,+6.0,-1.2,308.5,80.2,+7992,-0.2,-0.00,+1.0,40,+45,+12,92.4,29.92,+9502,292,17,133,,165.0,-2600,,,,,,,,,,,,,,,,,,3,0,0,2000,,,5524,5524,21.9,0.0,0.0,4.7,,,10.5,13.7,,-2.0,208.4,188.0,,,,,,,,+28,,+676,,+746,,,+93.7,+110.7,+38.8,+4.7,-90,+4.996,,,+7.7,+7.5,+58.3,+29.1,,,,,
51970.310,1509.75,2,9,2021-03-29 14:26:10,-33.58903,+21.82180,8369,77.4,287.4,+26.8,,,,,14:26:10,+5.9,-1.2,308.5,80.2,+7992,-0.2,-0.00,+1.0,40,+47,+12,92.4,29.92,+9502,292,17,133,,165.0,-2600,,,,,,,,,,,,,,,,,,3,0,0,2000,,,5524,5524,21.9,0.0,0.0,4.7,,,10.5,13.7,,-2.0,208.4,188.0,,,,,,,,+28,,+676,,+746,,,+93.6,+110.5,+38.8,+4.7,-90,+4.996,,,+7.7,+7.5,+58.3,+30.4,,,,,
51970.440,1509.88,2,9,2021-03-29 14:26:10,-33.58901,+21.82172,8369,77.6,287.4,+26.8,,,,,14:26:10,+5.8,-1.1,308.6,80.2,+7992,-0.2,-0.00,+1.0,40,+54,+12,92.5,29.92,+9502,292,17,133,,165.0,-2600,,,,,,,,,,,,,,,,,,3,0,0,2000,,,5520,5520,21.9,0.0,0.0,4.8,,,10.5,13.7,,-2.0,208.4,188.0,,,,,,,,+28,,+676,,+746,,,+93.5,+110.3,+38.8,+4.8,-90,+4.996,,,+7.7,+7.5,+58.4,+31.2,,,,,
51970.560,1510.00,2,9,2021-03-29 14:26:10,-33.58898,+21.82164,8370,77.7,287.4,+26.8,,,,,14:26:10,+5.8,-1.1,308.7,80.2,+7992,-0.1,-0.00,+1.0,40,+61,+12,92.5,29.92,+9502,292,17,133,,165.0,-2600,,,,,,,,,,,,,,,,,,3,0,0,2000,,,5520,5520,21.9,0.0,0.0,4.8,,,10.5,13.7,,-2.0,208.4,188.0,,,,,,,,+28,,+676,,+746,,,+93.5,+110.3,+38.8,+4.8,-90,+4.998,,,+7.7,+7.5,+58.4,+30.9,,,,,
51970.680,1510.12,2,9,2021-03-29 14:26:10,-33.58898,+21.82164,8370,77.7,287.4,+26.8,,,,,14:26:10,+5.8,-1.0,308.7,80.3,+7992,-0.1,-0.00,+1.0,40,+62,+12,92.6,29.92,+9502,291,17,133,,165.0,-2600,,,,,,,,,,,,,,,,,,3,0,0,2000,,,5520,5520,21.9,0.0,0.0,4.8,,,10.5,13.7,,-2.0,208.4,188.0,,,,,,,,+28,,+676,,+746,,,+93.5,+110.4,+38.8,+4.8,-90,+4.998,,,+7.7,+7.5,+58.4,+29.9,,,,,
51970.810,1510.25,2,9,2021-03-29 14:26:10,-33.58896,+21.82155,8370,77.9,287.3,+26.8,,,,,14:26:11,+5.8,-0.9,308.8,80.4,+7992,-0.0,-0.00,+1.0,40,+63,+12,92.7,29.92,+9502,291,17,133,,165.0,-2600,,,,,,,,,,,,,,,,,,3,0,0,2000,,,5520,5520,21.9,0.0,0.0,4.8,,,10.5,13.7,,-2.0,208.4,188.0,,,,,,,,+28,,+676,,+746,,,+93.6,+110.5,+38.8,+4.8,-90,+4.998,,,+7.7,+7.5,+58.3,+30.3,,,,,
51970.940,1510.38,2,9,2021-03-29 14:26:10,-33.58896,+21.82155,8370,77.9,287.3,+26.8,,,,,14:26:11,+5.8,-0.8,308.9,80.7,+7992,-0.0,-0.00,+1.0,40,+67,+12,93.0,29.92,+9502,291,17,133,,165.0,-2600,,,,,,,,,,,,,,,,,,3,1,0,2000,,,5521,5521,21.9,0.0,0.0,4.8,,,10.5,13.7,,-2.0,208.4,188.0,,,,,,,,+28,,+676,,+746,,,+93.6,+110.4,+38.8,+4.8,-90,+4.996,,,+7.7,+7.5,+58.3,+30.4,,,,,
51971.060,1510.50,2,9,2021-03-29 14:26:11,-33.58894,+21.82147,8370,78.1,287.4,+26.8,,,,,14:26:11,+5.7,-0.6,308.9,80.7,+7992,+0.0,-0.00,+1.0,40,+76,+12,93.0,29.92,+9502,291,17,133,,165.0,-2600,,,,,,,,,,,,,,,,,,3,1,0,2000,,,5521,5521,21.9,0.0,0.0,4.8,,,10.5,13.7,,-2.0,208.4,188.0,,,,,,,,+28,,+676,,+746,,,+93.5,+110.3,+38.8,+4.8,-90,+4.996,,,+7.7,+7.5,+58.4,+29.6,,,,,
51971.180,1510.62,2,9,2021-03-29 14:26:11,-33.58892,+21.82139,8370,78.2,287.4,+26.8,,,,,14:26:11,+5.7,-0.5,308.9,80.9,+7992,+0.0,-0.00,+1.0,40,+78,+12,93.3,29.92,+9502,291,17,133,,165.0,-2600,,,,,,,,,,,,,,,,,,3,1,0,2000,,,5520,5520,21.9,0.0,0.0,4.8,,,10.5,13.7,,-2.0,208.4,188.0,,,,,,,,+28,,+676,,+746,,,+93.6,+110.5,+38.8,+4.8,-90,+4.996,,,+7.7,+7.5,+58.4,+29.7,,,,,
51971.310,1510.75,2,9,2021-03-29 14:26:11,-33.58892,+21.82139,8370,78.2,287.4,+26.8,,,,,14:26:11,+5.7,-0.4,308.9,80.9,+7992,+0.0,-0.00,+1.0,40,+85,+12,93.3,29.92,+9502,291,17,133,,165.0,-2600,,,,,,,,,,,,,,,,,,3,1,0,2000,,,5520,5520,21.9,0.0,0.0,4.8,,,10.5,13.7,,-2.0,208.4,188.0,,,,,,,,+28,,+676,,+746,,,+93.7,+110.7,+38.8,+4.8,-90,+4.996,,,+7.7,+7.5,+58.3,+32.7,,,,,
51971.440,1510.88,2,9,2021-03-29 14:26:11,-33.58890,+21.82131,8371,78.4,287.4,+26.8,,,,,14:26:11,+5.7,-0.4,308.9,81.1,+7992,+0.0,-0.01,+1.0,40,+81,+12,93.5,29.92,+9502,291,17,133,,165.0,-2600,,,,,,,,,,,,,,,,,,3,1,0,2000,,,5520,5520,21.9,0.0,0.0,4.8,,,10.5,13.7,,-1.9,208.4,188.0,,,,,,,,+28,,+676,,+746,,,+93.7,+110.7,+38.8,+4.8,-90,+4.998,,,+7.7,+7.5,+58.3,+33.1,,,,,
51971.560,1511.00,2,9,2021-03-29 14:26:11,-33.58887,+21.82122,8371,78.6,287.4,+26.8,,,,,14:26:11,+5.7,-0.4,308.8,81.1,+7992,+0.0,-0.00,+1.0,40,+84,+12,93.5,29.92,+9502,291,17,133,,165.0,-2600,,,,,,,,,,,,,,,,,,3,1,0,2000,,,5520,5520,21.9,0.0,0.0,4.8,,,10.5,13.7,,-1.9,208.4,188.0,,,,,,,,+28,,+676,,+746,,,+93.5,+110.4,+38.8,+4.8,-90,+4.998,,,+7.7,+7.5,+58.2,+31.2,,,,,
51971.680,1511.12,2,9,2021-03-29 14:26:11,-33.58887,+21.82122,8371,78.6,287.4,+26.8,,,,,14:26:11,+5.7,-0.4,308.8,81.2,+7992,-0.0,-0.00,+1.0,40,+78,+12,93.6,29.92,+9502,291,17,133,,165.0,-2600,,,,,,,,,,,,,,,,,,3,1,0,2000,,,5523,5523,21.9,0.0,0.0,4.7,,,10.5,13.7,,-2.0,208.4,188.0,,,,,,,,+28,,+676,,+746,,,+93.5,+110.3,+38.8,+4.7,-90,+4.998,,,+7.7,+7.5,+58.2,+31.8,,,,,
51971.810,1511.25,2,9,2021-03-29 14:26:11,-33.58885,+21.82114,8372,78.7,287.4,+26.8,,,,,14:26:12,+5.7,-0.4,308.8,81.2,+7992,-0.1,-0.00,+1.0,40,+76,+12,93.6,29.92,+9502,291,17,133,,165.0,-2600,,,,,,,,,,,,,,,,,,3,1,0,2000,,,5523,5523,21.9,0.0,0.0,4.8,,,10.5,13.7,,-2.0,208.4,188.0,,,,,,,,+28,,+676,,+746,,,+93.4,+110.2,+38.8,+4.8,-90,+4.998,,,+7.7,+7.5,+58.3,+34.3,,,,,
51971.940,1511.38,2,9,2021-03-29 14:26:11,-33.58885,+21.82114,8373,78.7,287.4,+26.8,,,,,14:26:12,+5.7,-0.4,308.8,81.4,+7992,-0.1,-0.00,+1.0,40,+78,+12,93.8,29.92,+9499,291,17,133,,165.0,-2600,,,,,,,,,,,,,,,,,,3,1,0,2000,,,5525,5525,21.9,0.0,0.0,4.8,,,10.5,13.7,,-2.0,208.4,188.0,,,,,,,,+28,,+676,,+746,,,+93.5,+110.4,+38.8,+4.8,-90,+4.998,,,+7.7,+7.5,+58.4,+34.0,,,,,
51972.060,1511.50,2,9,2021-03-29 14:26:12,-33.58883,+21.82106,8373,78.9,287.4,+26.8,,,,,14:26:12,+5.7,-0.5,308.8,81.4,+7992,-0.1,-0.00,+1.0,40,+88,+12,93.8,29.92,+9499,291,17,133,,165.0,-2600,,,,,,,,,,,,,,,,,,3,1,0,2000,,,5525,5525,21.9,0.0,0.0,4.8,,,10.5,13.7,,-2.0,208.4,188.0,,,,,,,,+28,,+676,,+746,,,+93.5,+110.4,+38.8,+4.8,-90,+4.996,,,+7.7,+7.5,+58.4,+34.4,,,,,
51972.180,1511.62,2,9,2021-03-29 14:26:12,-33.58881,+21.82098,8373,79.0,287.4,+26.8,,,,,14:26:12,+5.7,-0.5,308.8,81.3,+7992,-0.2,-0.00,+1.0,40,+90,+12,93.7,29.92,+9499,291,17,133,,165.0,-2600,,,,,,,,,,,,,,,,,,3,1,0,2000,,,5521,5521,21.9,0.0,0.0,4.8,,,10.5,13.7,,-2.0,208.4,188.0,,,,,,,,+28,,+676,,+746,,,+93.5,+110.3,+38.8,+4.8,-90,+4.996,,,+7.7,+7.5,+58.4,+34.5,,,,,
51972.310,1511.75,2,9,2021-03-29 14:26:12,-33.58881,+21.82098,8373,79.0,287.4,+26.8,,,,,14:26:12,+5.7,-0.6,308.8,81.3,+7992,-0.2,-0.00,+1.0,40,+93,+12,93.7,29.92,+9499,291,17,133,,165.0,-2600,,,,,,,,,,,,,,,,,,3,1,0,2000,,,5521,5521,21.9,0.0,0.0,4.7,,,10.5,13.7,,-2.0,208.4,188.0,,,,,,,,+28,,+676,,+746,,,+93.5,+110.2,+38.8,+4.7,-90,+4.996,,,+7.7,+7.5,+58.4,+32.4,,,,,
51972.440,1511.88,2,9,2021-03-29 14:26:12,-33.58879,+21.82089,8374,79.2,287.5,+26.8,,,,,14:26:12,+5.7,-0.7,308.8,81.3,+7992,-0.2,-0.00,+1.0,40,+97,+12,93.8,29.92,+9499,291,17,133,,165.0,-2600,,,,,,,,,,,,,,,,,,3,1,0,2000,,,5521,5521,21.9,0.0,0.0,4.6,,,10.5,13.7,,-2.0,208.4,188.0,,,,,,,,+28,,+676,,+746,,,+93.6,+110.4,+38.8,+4.6,-90,+4.996,,,+7.7,+7.5,+58.4,+32.0,,,,,
51972.560,1512.00,2,9,2021-03-29 14:26:12,-33.58876,+21.82081,8373,79.3,287.4,+26.8,,,,,14:26:12,+5.7,-0.7,308.8,81.5,+7992,-0.2,-0.00,+1.0,39,+95,+12,94.0,29.92,+9499,291,17,133,,165.0,-2600,,,,,,,,,,,,,,,,,,3,1,0,2000,,,5521,5521,21.9,0.0,0.0,4.6,,,10.5,13.7,,-2.0,208.4,188.0,,,,,,,,+28,,+676,,+746,,,+93.7,+110.6,+38.8,+4.6,-90,+4.996,,,+7.7,+7.5,+58.3,+31.6,,,,,
51972.680,1512.12,2,9,2021-03-29 14:26:12,-33.58876,+21.82081,8373,79.3,287.4,+26.8,,,,,14:26:12,+5.7,-0.8,308.8,81.7,+7992,-0.2,-0.00,+1.0,39,+92,+12,94.2,29.92,+9499,290,17,133,,165.0,-2600,,,,,,,,,,,,,,,,,,3,1,0,2000,,,5523,5523,21.9,0.0,0.0,4.7,,,10.5,13.7,,-1.9,208.4,188.0,,,,,,,,+28,,+676,,+746,,,+93.6,+110.6,+38.7,+4.7,-90,+4.998,,,+7.7,+7.5,+58.4,+30.7,,,,,
51972.810,1512.25,2,9,2021-03-29 14:26:12,-33.58875,+21.82073,8374,79.4,287.4,+26.8,,,,,14:26:13,+5.6,-0.8,308.7,81.8,+7992,-0.2,-0.00,+1.0,39,+92,+12,94.3,29.92,+9499,290,17,133,,165.0,-2600,,,,,,,,,,,,,,,,,,3,0,0,2000,,,5523,5523,21.9,0.0,0.0,4.7,,,10.5,13.7,,-1.9,208.4,188.0,,,,,,,,+28,,+676,,+746,,,+93.5,+110.3,+38.7,+4.7,-90,+4.996,,,+7.7,+7.5,+58.3,+31.8,,,,,
51972.940,1512.38,2,9,2021-03-29 14:26:12,-33.58875,+21.82073,8374,79.4,287.4,+26.8,,,,,14:26:13,+5.5,-0.9,308.7,81.9,+7992,-0.2,-0.00,+1.0,39,+95,+12,94.5,29.92,+9499,290,17,133,,165.0,-2600,,,,,,,,,,,,,,,,,,3,1,0,2000,,,5521,5521,21.9,0.0,0.0,4.7,,,10.5,13.7,,-2.0,208.4,188.0,,,,,,,,+28,,+676,,+746,,,+93.4,+110.2,+38.7,+4.7,-90,+4.996,,,+7.7,+7.5,+58.4,+32.6,,,,,
51973.060,1512.50,2,9,2021-03-29 14:26:13,-33.58872,+21.82064,8374,79.6,287.4,+26.8,,,,,14:26:13,+5.4,-0.9,308.7,81.8,+7992,-0.2,-0.00,+1.0,38,+98,+12,94.4,29.92,+9499,290,17,133,,165.0,-2600,,,,,,,,,,,,,,,,,,3,1,0,2000,,,5521,5521,21.9,0.0,0.0,4.7,,,10.5,13.7,,-2.0,208.4,188.0,,,,,,,,+28,,+676,,+746,,,+93.4,+110.2,+38.7,+4.7,-90,+4.996,,,+7.7,+7.5,+58.4,+32.0,,,,,
51973.180,1512.62,2,9,2021-03-29 14:26:13,-33.58870,+21.82055,8375,79.8,287.5,+26.8,,,,,14:26:13,+5.3,-0.9,308.8,81.8,+7992,-0.2,-0.00,+1.0,38,+101,+12,94.3,29.92,+9499,290,17,133,,165.0,-2600,,,,,,,,,,,,,,,,,,3,1,0,2000,,,5517,5517,21.9,0.0,0.0,4.7,,,10.5,13.7,,-2.0,208.4,188.0,,,,,,,,+28,,+676,,+746,,,+93.5,+110.3,+38.7,+4.7,-90,+4.996,,,+7.7,+7.5,+58.5,+32.8,,,,,
51973.310,1512.75,2,9,2021-03-29 14:26:13,-33.58870,+21.82055,8375,79.8,287.5,+26.8,,,,,14:26:13,+5.3,-0.9,308.7,81.9,+7992,-0.2,-0.00,+1.0,38,+100,+12,94.4,29.92,+9499,290,17,133,,165.0,-2600,,,,,,,,,,,,,,,,,,3,1,0,2000,,,5517,5517,21.9,0.0,0.0,4.7,,,10.5,13.7,,-2.0,208.4,188.0,,,,,,,,+28,,+676,,+746,,,+93.5,+110.3,+38.7,+4.7,-90,+4.996,,,+7.7,+7.5,+58.3,+32.2,,,,,
51973.440,1512.88,2,9,2021-03-29 14:26:13,-33.58868,+21.82047,8376,80.0,287.5,+26.8,,,,,14:26:13,+5.2,-1.0,308.7,81.9,+7992,-0.2,-0.00,+1.0,38,+109,+12,94.4,29.92,+9499,290,17,133,,165.0,-2600,,,,,,,,,,,,,,,,,,3,1,0,2000,,,5521,5521,21.9,0.0,0.0,4.7,,,10.5,13.7,,-2.0,208.4,188.0,,,,,,,,+28,,+676,,+746,,,+93.5,+110.3,+38.7,+4.7,-90,+4.996,,,+7.7,+7.5,+58.4,+30.8,,,,,
